[
  {
    "city": "上海市",
    "name": "上海市闵行区中医医院",
    "lat": 31.18056,
    "lng": 121.376399,
    "tel": "021-51876888;4006566210"
  },
  {
    "city": "福州市",
    "name": "福州美莱华美美容医院(塔头路)",
    "lat": 26.093847,
    "lng": 119.31759,
    "tel": "0591-22966666"
  },
  {
    "city": "上海市",
    "name": "上海万众医院",
    "lat": 31.192647,
    "lng": 121.424913,
    "tel": "021-64389999"
  },
  {
    "city": "上海市",
    "name": "安贞医院",
    "lat": 31.029304,
    "lng": 121.244635,
    "tel": "13585502785"
  },
  {
    "city": "上海市",
    "name": "上海福华医院",
    "lat": 31.042913,
    "lng": 121.750295,
    "tel": "021-51961999"
  },
  {
    "city": "上海市",
    "name": "上海玛丽医院",
    "lat": 31.14663,
    "lng": 121.121815,
    "tel": "021-69726299"
  },
  {
    "city": "上海市",
    "name": "真爱医院",
    "lat": 31.215451,
    "lng": 121.457594,
    "tel": ""
  },
  {
    "city": "上海市",
    "name": "上海市东方医院",
    "lat": 31.242429,
    "lng": 121.515284,
    "tel": "021-38804518"
  },
  {
    "city": "上海市",
    "name": "上海沪申五官科医院",
    "lat": 31.159366,
    "lng": 121.439213,
    "tel": "021-54305338;021-62119666"
  },
  {
    "city": "上海市",
    "name": "上海远大心胸医院",
    "lat": 31.166677,
    "lng": 121.43855,
    "tel": "021-64829999"
  },
  {
    "city": "上海市",
    "name": "上海仁爱医院",
    "lat": 31.178147,
    "lng": 121.440147,
    "tel": "021-64688888;13701649989"
  },
  {
    "city": "上海市",
    "name": "上海天大医疗美容医院",
    "lat": 31.213259,
    "lng": 121.41434,
    "tel": "021-64080808"
  },
  {
    "city": "上海市",
    "name": "上海沪申五官科医院",
    "lat": 31.159366,
    "lng": 121.439213,
    "tel": "021-54305338;021-62119666"
  },
  {
    "name": "上海市",
    "lat": 31.234906,
    "lng": 121.468934
  },
  {
    "city": "上海市",
    "name": "上海虹桥医院",
    "lat": 31.171698,
    "lng": 121.39022,
    "tel": "021-64659999;021-64126120"
  },
  {
    "city": "上海市",
    "name": "上海九龙男子医院",
    "lat": 31.220511,
    "lng": 121.413555,
    "tel": "021-52750399"
  },
  {
    "city": "上海市",
    "name": "上海女子医院",
    "lat": 31.154463,
    "lng": 121.4936,
    "tel": "021-60515996"
  },
  {
    "city": "上海市",
    "name": "上海西郊骨科医院",
    "lat": 31.211934,
    "lng": 121.366224,
    "tel": "021-32513263;021-52208866"
  },
  {
    "city": "上海市",
    "name": "上海真美妇科医院",
    "lat": 31.260748,
    "lng": 121.533513,
    "tel": "021-55970067"
  },
  {
    "city": "上海市",
    "name": "上海南浦妇科医院",
    "lat": 31.199592,
    "lng": 121.518517,
    "tel": "021-58891199"
  },
  {
    "city": "上海市",
    "name": "上海虹桥医院",
    "lat": 31.171698,
    "lng": 121.39022,
    "tel": "021-64659999;021-64126120"
  },
  {
    "city": "上海市",
    "name": "上海健桥医院",
    "lat": 31.248337,
    "lng": 121.469192,
    "tel": "021-56659999"
  },
  {
    "name": "上海市",
    "lat": 31.234906,
    "lng": 121.468934
  },
  {
    "city": "上海市",
    "name": "长江医院(周家嘴路)",
    "lat": 31.259247,
    "lng": 121.493603,
    "tel": "021-65022556"
  },
  {
    "city": "上海市",
    "name": "中国人民解放军第四一一医院",
    "lat": 31.267855,
    "lng": 121.483573,
    "tel": "021-56969799;021-65876866;021-81867114"
  },
  {
    "city": "上海市",
    "name": "上海市中医医院",
    "lat": 31.2545,
    "lng": 121.474669,
    "tel": "021-56639828;021-56634500;021-51078220"
  },
  {
    "city": "上海市",
    "name": "上海英港泌尿外科医院",
    "lat": 31.377644,
    "lng": 121.499678,
    "tel": "021-56846229;021-56841666;021-62319976"
  },
  {
    "city": "上海市",
    "name": "上海阿波罗男子医院",
    "lat": 31.208403,
    "lng": 121.479575,
    "tel": "021-63458111;4008205191;021-63458019"
  },
  {
    "city": "上海市",
    "name": "上海玫瑰女子医院工会委员会",
    "lat": 31.250614,
    "lng": 121.446917,
    "tel": ""
  },
  {
    "city": "上海市",
    "name": "上海市质子重离子医院",
    "lat": 31.113786,
    "lng": 121.622322,
    "tel": "021-38296601;021-38296600"
  },
  {
    "city": "上海市",
    "name": "上海圣爱医院管理有限公司",
    "lat": 31.221686,
    "lng": 121.411455,
    "tel": ""
  },
  {
    "city": "上海市",
    "name": "上海同德医院",
    "lat": 31.156402,
    "lng": 121.108595,
    "tel": "021-69220999;021-69229050"
  },
  {
    "city": "上海市",
    "name": "上海安平医院",
    "lat": 31.205636,
    "lng": 121.693348,
    "tel": "021-58981111"
  },
  {
    "city": "上海市",
    "name": "可的便利店(浦东店)",
    "lat": 31.267442,
    "lng": 121.564554,
    "tel": "021-58507673"
  },
  {
    "city": "上海市",
    "name": "上海九洲医院",
    "lat": 31.271864,
    "lng": 121.39032,
    "tel": "4000408021"
  },
  {
    "city": "上海市",
    "name": "上海青城医院",
    "lat": 31.162764,
    "lng": 121.119397,
    "tel": "021-69725010;021-66371899;021-69725050"
  },
  {
    "city": "上海市",
    "name": "上海博大医院",
    "lat": 31.009201,
    "lng": 121.232782,
    "tel": "021-57818599;4001688002"
  },
  {
    "city": "上海市",
    "name": "上海中亚医院(嘉丰路)",
    "lat": 31.369621,
    "lng": 121.239014,
    "tel": "021-59525020;15000567972"
  },
  {
    "city": "北京市",
    "name": "北京美莱医疗美容",
    "lat": 39.921912,
    "lng": 116.437266,
    "tel": "010-56935555;010-56935488;010-56935111"
  },
  {
    "city": "北京市",
    "name": "北京北海医院",
    "lat": 39.932793,
    "lng": 116.391729,
    "tel": "010-64032828;010-64019060;4006783451"
  },
  {
    "city": "北京市",
    "name": "北京前海股骨头医院",
    "lat": 39.935587,
    "lng": 116.389872,
    "tel": "010-66551166;4006655166"
  },
  {
    "city": "北京市",
    "name": "北京市慧慈医院",
    "lat": 40.145559,
    "lng": 117.119726,
    "tel": "010-69961996;010-69976333"
  },
  {
    "city": "北京市",
    "name": "北京五洲妇儿医院",
    "lat": 39.896345,
    "lng": 116.473118,
    "tel": "010-87769899;010-87769392"
  },
  {
    "city": "北京市",
    "name": "恒安中医院",
    "lat": 39.880533,
    "lng": 116.475714,
    "tel": "010-67300912;010-67320389"
  },
  {
    "city": "北京市",
    "name": "北京建国医院",
    "lat": 39.918716,
    "lng": 116.473397,
    "tel": "010-65856606;010-65850611;010-65850579"
  },
  {
    "city": "北京市",
    "name": "北京国际医疗中心",
    "lat": 39.953846,
    "lng": 116.461265,
    "tel": "010-64651561;010-64651562"
  },
  {
    "city": "北京市",
    "name": "北京天伦不孕不育医院",
    "lat": 39.915637,
    "lng": 116.4331,
    "tel": "010-85631116;010-85617849"
  },
  {
    "city": "北京市",
    "name": "北京玛丽妇婴医院",
    "lat": 39.956099,
    "lng": 116.427,
    "tel": "010-64272076;010-64216666"
  },
  {
    "city": "北京市",
    "name": "美联臣",
    "lat": 39.89031,
    "lng": 116.465575,
    "tel": "010-87729730;010-87728888"
  },
  {
    "city": "北京市",
    "name": "北京菩提慧宾中医养生研究院",
    "lat": 39.90257,
    "lng": 116.448536,
    "tel": "010-65662528"
  },
  {
    "city": "北京市",
    "name": "北京古城都市丽人医院",
    "lat": 39.915777,
    "lng": 116.182938,
    "tel": "010-68875269;010-68882323;010-68876529"
  },
  {
    "city": "北京市",
    "name": "恒安中医院",
    "lat": 39.880533,
    "lng": 116.475714,
    "tel": "010-67300912;010-67320389"
  },
  {
    "city": "北京市",
    "name": "北京京城皮肤病医院",
    "lat": 40.006065,
    "lng": 116.36202,
    "tel": "010-83838389;010-64888999;010-64870888"
  },
  {
    "city": "北京市",
    "name": "北京京北医院",
    "lat": 40.031394,
    "lng": 116.345176,
    "tel": "010-62991999;010-62905150;010-62902411"
  },
  {
    "city": "北京市",
    "name": "北京瑞京糖尿病医院",
    "lat": 39.846685,
    "lng": 116.411912,
    "tel": "010-88229999"
  },
  {
    "city": "北京市",
    "name": "北京众安康颈腰椎保健职业技能培训学校",
    "lat": 39.919235,
    "lng": 116.499215,
    "tel": "18310508462"
  },
  {
    "city": "北京市",
    "name": "北京玛丽妇婴医院",
    "lat": 39.956099,
    "lng": 116.427,
    "tel": "010-64272076;010-64216666"
  },
  {
    "city": "北京市",
    "name": "北京麦瑞骨科医院",
    "lat": 40.027154,
    "lng": 116.421527,
    "tel": "010-64479999;010-64479900;010-64479913"
  },
  {
    "city": "北京市",
    "name": "北京市健宫医院",
    "lat": 39.877748,
    "lng": 116.377901,
    "tel": "010-83521777;010-63532299"
  },
  {
    "city": "北京市",
    "name": "北京华医皮肤病医院",
    "lat": 39.958458,
    "lng": 116.279195,
    "tel": "010-68685858;010-88485516"
  },
  {
    "city": "北京市",
    "name": "北京德胜门中医院",
    "lat": 39.954362,
    "lng": 116.38248,
    "tel": "010-84044848;010-57175152;010-64006186"
  },
  {
    "city": "北京市",
    "name": "北京军都医院",
    "lat": 39.96647,
    "lng": 116.384688,
    "tel": "010-82960408;010-82960452;010-62386666"
  },
  {
    "city": "苏州市",
    "name": "苏州东吴中西医结合医院",
    "lat": 31.283654,
    "lng": 120.595635,
    "tel": "0512-68120120"
  },
  {
    "city": "苏州市",
    "name": "苏州美莱美容医院",
    "lat": 31.306563,
    "lng": 120.598104,
    "tel": "0512-88169999;4008816499"
  },
  {
    "city": "苏州市",
    "name": "苏州圣爱医院",
    "lat": 31.294628,
    "lng": 120.55383,
    "tel": "0512-68080101;0512-68081010;0512-68078047"
  },
  {
    "city": "苏州市",
    "name": "苏州新世纪企业发展有限公司(东南门)",
    "lat": 31.313515,
    "lng": 120.617926,
    "tel": ""
  },
  {
    "city": "天津市",
    "name": "天津坤如玛丽妇产医院",
    "lat": 39.048104,
    "lng": 117.235611,
    "tel": "022-58785555;022-58785510"
  },
  {
    "city": "天津市",
    "name": "天津华北医院",
    "lat": 39.134857,
    "lng": 117.23029,
    "tel": "022-24418755;022-24331990;022-24335511"
  },
  {
    "city": "天津市",
    "name": "华夏银行ATM(圣爱医院ATM)",
    "lat": 39.034461,
    "lng": 117.693031,
    "tel": ""
  },
  {
    "city": "天津市",
    "name": "丽人医院",
    "lat": 39.114637,
    "lng": 117.24218,
    "tel": "022-24149011;022-24158811"
  },
  {
    "city": "天津市",
    "name": "天津华山医院",
    "lat": 39.124512,
    "lng": 117.166378,
    "tel": "022-58815666;022-58815889;022-27422922"
  },
  {
    "city": "天津市",
    "name": "天津怡泰医院",
    "lat": 39.133704,
    "lng": 117.149972,
    "tel": "022-27113333"
  },
  {
    "city": "天津市",
    "name": "天津现代女子医院",
    "lat": 39.137026,
    "lng": 117.205696,
    "tel": "022-24459999;022-24462722;022-24453080"
  },
  {
    "city": "天津市",
    "name": "天津怡泰医院",
    "lat": 39.133704,
    "lng": 117.149972,
    "tel": "022-27113333"
  },
  {
    "city": "天津市",
    "name": "天津乐园医院",
    "lat": 39.096443,
    "lng": 117.216506,
    "tel": "022-59006960;022-59006988;022-59886980"
  },
  {
    "city": "天津市",
    "name": "长庚耳鼻喉医院",
    "lat": 39.17251,
    "lng": 117.184909,
    "tel": "022-26429999;4009976120"
  },
  {
    "city": "广州市",
    "name": "广州美莱医疗美容(美莱集团华南旗舰院)",
    "lat": 23.149072,
    "lng": 113.31802,
    "tel": "4006859999;020-38987257"
  },
  {
    "city": "广州市",
    "name": "广州现代医院",
    "lat": 23.160178,
    "lng": 113.306399,
    "tel": "020-22221111"
  },
  {
    "city": "广州市",
    "name": "长安医院(天河路)",
    "lat": 23.136195,
    "lng": 113.340499,
    "tel": "020-22222222;4006684220;020-22370101"
  },
  {
    "city": "广州市",
    "name": "广州益寿医院",
    "lat": 23.168646,
    "lng": 113.253488,
    "tel": "020-22356666"
  },
  {
    "city": "广州市",
    "name": "利德妇科",
    "lat": 23.177563,
    "lng": 113.231974,
    "tel": ""
  },
  {
    "city": "广州市",
    "name": "时代·俪人(大学城店)",
    "lat": 23.059341,
    "lng": 113.406859,
    "tel": "13250245386"
  },
  {
    "city": "广州市",
    "name": "番禺玛莉亚医院-国际客服",
    "lat": 22.962995,
    "lng": 113.359551,
    "tel": ""
  },
  {
    "city": "广州市",
    "name": "广州市越秀区圣亚医院",
    "lat": 23.133373,
    "lng": 113.318146,
    "tel": "020-28296666;020-28292333"
  },
  {
    "city": "广州市",
    "name": "广州女子医院",
    "lat": 23.103119,
    "lng": 113.241121,
    "tel": "020-81891166;020-81579990;020-81579996"
  },
  {
    "city": "广州市",
    "name": "广东江南医院",
    "lat": 23.094832,
    "lng": 113.309418,
    "tel": "020-84286688;020-84452095"
  },
  {
    "city": "广州市",
    "name": "济慈康复医院",
    "lat": 23.10674,
    "lng": 113.559063,
    "tel": "020-32282333;020-32281595;020-32282513"
  },
  {
    "city": "广州市",
    "name": "广州市长泰不孕不育研究院",
    "lat": 23.123295,
    "lng": 113.412648,
    "tel": "020-61002222;13678906777"
  },
  {
    "city": "广州市",
    "name": "新塘健安医院",
    "lat": 23.125801,
    "lng": 113.622955,
    "tel": "020-82608206"
  },
  {
    "city": "广州市",
    "name": "广州458皮肤病医院",
    "lat": 23.12625,
    "lng": 113.308173,
    "tel": "020-38874483"
  },
  {
    "city": "广州市",
    "name": "广州花都人爱医院",
    "lat": 23.400664,
    "lng": 113.201058,
    "tel": "020-86967333;020-86884666"
  },
  {
    "city": "广州市",
    "name": "广州远东美容医院",
    "lat": 23.176311,
    "lng": 113.262627,
    "tel": "020-26097676;020-26097783"
  },
  {
    "city": "珠海市",
    "name": "珠海妇产科医院",
    "lat": 22.223035,
    "lng": 113.563252,
    "tel": "0756-8877099"
  },
  {
    "city": "珠海市",
    "name": "珠海九龙医院",
    "lat": 22.243912,
    "lng": 113.57722,
    "tel": "0756-3296666;0756-3296689;0756-3296688"
  },
  {
    "city": "珠海市",
    "name": "珠海阳光医院",
    "lat": 22.253291,
    "lng": 113.583035,
    "tel": "0756-3339999;4001140756;4008309111"
  },
  {
    "city": "惠州市",
    "name": "惠州仁德妇科医院",
    "lat": 23.078777,
    "lng": 114.406855,
    "tel": "0752-2370018;0752-2212222"
  },
  {
    "city": "惠州市",
    "name": "东江泌尿专科医院",
    "lat": 23.078856,
    "lng": 114.414451,
    "tel": "0752-2282166;0752-2225888;18927328678"
  },
  {
    "city": "中山市",
    "name": "中山玛丽亚妇产医院",
    "lat": 22.514337,
    "lng": 113.396776,
    "tel": "0760-88391111;0760-88234111"
  },
  {
    "city": "中山市",
    "name": "广州中医药大学中山国丹中医院",
    "lat": 22.555139,
    "lng": 113.455905,
    "tel": "0760-88588333;0760-88581811"
  },
  {
    "city": "中山市",
    "name": "中山和平中医院",
    "lat": 22.686626,
    "lng": 113.241617,
    "tel": ""
  },
  {
    "city": "中山市",
    "name": "中山市阳光医疗",
    "lat": 22.500237,
    "lng": 113.38133,
    "tel": ""
  },
  {
    "city": "汕头市",
    "name": "汕头妇产医院",
    "lat": 23.376649,
    "lng": 116.734006,
    "tel": "0754-86111111"
  },
  {
    "city": "东莞市",
    "name": "东莞现代妇科医院(西南门)",
    "lat": 23.062704,
    "lng": 113.805579,
    "tel": ""
  },
  {
    "city": "东莞市",
    "name": "广东省东莞市塘廈镇",
    "lat": 22.798534,
    "lng": 114.040819,
    "tel": ""
  },
  {
    "city": "东莞市",
    "name": "东莞市常平人民医院",
    "lat": 22.970169,
    "lng": 114.01996,
    "tel": "0769-83912333;0769-83996766;0769-83821631"
  },
  {
    "city": "东莞市",
    "name": "东莞韩美美容医院",
    "lat": 23.014763,
    "lng": 113.740661,
    "tel": "0769-28633555"
  },
  {
    "city": "东莞市",
    "name": "长安乌沙医院",
    "lat": 22.789662,
    "lng": 113.784454,
    "tel": "0769-85538120;0769-85328288;0769-81316780"
  },
  {
    "city": "东莞市",
    "name": "东莞万福妇产医院",
    "lat": 22.811764,
    "lng": 113.698691,
    "tel": "0769-82887999;4000361120"
  },
  {
    "city": "东莞市",
    "name": "东莞南华妇科医院",
    "lat": 22.956017,
    "lng": 113.9084,
    "tel": "4006150120;0769-82226999"
  },
  {
    "city": "东莞市",
    "name": "东莞东方泌尿医院",
    "lat": 23.036543,
    "lng": 113.783533,
    "tel": "0769-27285999;0769-27285199;0769-88118888"
  },
  {
    "city": "江门市",
    "name": "新会现代妇科医院",
    "lat": 22.510441,
    "lng": 113.01744,
    "tel": "0750-6689888"
  },
  {
    "city": "江门市",
    "name": "江门市福康门诊部",
    "lat": 22.584855,
    "lng": 113.084592,
    "tel": "0750-3270999;0750-3276181;0750-3276188"
  },
  {
    "city": "肇庆市",
    "name": "肇庆英博男科医院",
    "lat": 23.05164,
    "lng": 112.487676,
    "tel": "0758-2259999"
  },
  {
    "city": "佛山市",
    "name": "三水区女子医院",
    "lat": 23.173596,
    "lng": 112.884957,
    "tel": "0757-87803777;18927646622"
  },
  {
    "city": "佛山市",
    "name": "新容奇医院",
    "lat": 22.768083,
    "lng": 113.272973,
    "tel": "0757-26688120;0757-28313770;0757-28818169"
  },
  {
    "city": "佛山市",
    "name": "顺德新世纪男科医院",
    "lat": 22.815908,
    "lng": 113.236749,
    "tel": "0757-29282999"
  },
  {
    "city": "佛山市",
    "name": "庄头医院",
    "lat": 22.992105,
    "lng": 113.200616,
    "tel": "0757-23319269;0757-23324832;0757-23310350"
  },
  {
    "city": "佛山市",
    "name": "广东省佛山市顺德区阳光(罗地街)",
    "lat": 22.769599,
    "lng": 113.26908,
    "tel": ""
  },
  {
    "city": "深圳市",
    "name": "深圳美莱医疗美容医院",
    "lat": 22.545715,
    "lng": 114.09384,
    "tel": "0755-88995888"
  },
  {
    "city": "深圳市",
    "name": "深圳福华中西医结合医院",
    "lat": 22.540575,
    "lng": 114.087862,
    "tel": "0755-83337088;0755-88297667;4008338339"
  },
  {
    "city": "深圳市",
    "name": "深圳博爱医院",
    "lat": 22.554261,
    "lng": 114.109759,
    "tel": "0755-25890396;0755-25869688"
  },
  {
    "city": "深圳市",
    "name": "深圳曙光医院",
    "lat": 22.550896,
    "lng": 114.105191,
    "tel": "0755-82473398"
  },
  {
    "city": "深圳市",
    "name": "深圳远东妇儿科医院",
    "lat": 22.539228,
    "lng": 114.128061,
    "tel": "0755-88808888"
  },
  {
    "city": "深圳市",
    "name": "深圳仁爱医院",
    "lat": 22.523527,
    "lng": 114.036271,
    "tel": "0755-88308111;0755-88308188;0755-88308120"
  },
  {
    "city": "深圳市",
    "name": "深圳和美妇儿科医院",
    "lat": 22.537991,
    "lng": 113.918703,
    "tel": "0755-33919133;0755-33391333"
  },
  {
    "city": "深圳市",
    "name": "深圳仁康医院",
    "lat": 22.580738,
    "lng": 114.115108,
    "tel": "0755-25679833;0755-25481365;0755-25671995"
  },
  {
    "city": "深圳市",
    "name": "深圳罗岗医院",
    "lat": 22.599887,
    "lng": 114.121642,
    "tel": "0755-84706655"
  },
  {
    "city": "深圳市",
    "name": "深圳雪象医院",
    "lat": 22.653726,
    "lng": 114.073701,
    "tel": "0755-61260222;0755-89707061;0755-28795887"
  },
  {
    "city": "深圳市",
    "name": "深圳健安医院",
    "lat": 22.632259,
    "lng": 114.041572,
    "tel": "0755-28196620;0755-89709546;0755-28199620"
  },
  {
    "city": "深圳市",
    "name": "深圳华南妇科医院",
    "lat": 22.688246,
    "lng": 114.349948,
    "tel": "0755-84606976"
  },
  {
    "city": "深圳市",
    "name": "国瑞印刷",
    "lat": 22.636517,
    "lng": 113.947212,
    "tel": ""
  },
  {
    "city": "深圳市",
    "name": "深圳韩美尔医疗美容门诊部",
    "lat": 22.559597,
    "lng": 114.10895,
    "tel": "0755-25892309;13652365617"
  },
  {
    "city": "深圳市",
    "name": "深圳健丰医院",
    "lat": 22.697004,
    "lng": 114.32661,
    "tel": "0755-84648333"
  },
  {
    "city": "深圳市",
    "name": "深圳龙济医院",
    "lat": 22.654369,
    "lng": 114.015295,
    "tel": "0755-28111000;0755-29111999;0755-28120120"
  },
  {
    "city": "深圳市",
    "name": "深圳同仁妇科医院",
    "lat": 22.577374,
    "lng": 113.876271,
    "tel": "0755-23462210;0755-27909999"
  },
  {
    "city": "深圳市",
    "name": "福永人民医院凤凰分院",
    "lat": 22.694388,
    "lng": 113.831317,
    "tel": ""
  },
  {
    "city": "深圳市",
    "name": "深圳阳光整形美容医院",
    "lat": 22.544519,
    "lng": 114.109093,
    "tel": "0755-25563998"
  },
  {
    "city": "昆明市",
    "name": "华美美莱美容医院",
    "lat": 25.051966,
    "lng": 102.719756,
    "tel": "0871-66199999;0871-66151888"
  },
  {
    "city": "昆明市",
    "name": "云南玛莉亚医院",
    "lat": 25.050639,
    "lng": 102.71413,
    "tel": "0871-68069999;15198904644"
  },
  {
    "city": "昆明市",
    "name": "云南玛莉亚医院",
    "lat": 25.050639,
    "lng": 102.71413,
    "tel": "0871-68069999;15198904644"
  },
  {
    "city": "昆明市",
    "name": "昆明医科大学第一附属医院",
    "lat": 25.039374,
    "lng": 102.690782,
    "tel": "0871-65324888"
  },
  {
    "city": "昆明市",
    "name": "昆明阳光酒店",
    "lat": 25.01447,
    "lng": 102.689987,
    "tel": "0871-68508888"
  },
  {
    "city": "昆明市",
    "name": "云南仁爱医院",
    "lat": 25.069563,
    "lng": 102.711118,
    "tel": "0871-65116111;0871-65186680;0871-65116690"
  },
  {
    "city": "昆明市",
    "name": "云南九洲医院",
    "lat": 25.058111,
    "lng": 102.736072,
    "tel": "0871-66066888;4006645550"
  },
  {
    "city": "昆明市",
    "name": "中国人民解放军第四七八医院",
    "lat": 25.010492,
    "lng": 102.745139,
    "tel": "0871-64770800;4006239120"
  },
  {
    "city": "昆明市",
    "name": "云南九洲医院",
    "lat": 25.058111,
    "lng": 102.736072,
    "tel": "0871-66066888;4006645550"
  },
  {
    "city": "玉溪市",
    "name": "玉溪九洲医院",
    "lat": 24.357103,
    "lng": 102.532742,
    "tel": "0877-6106666;0877-6103567"
  },
  {
    "city": "曲靖市",
    "name": "阳光医院",
    "lat": 25.663731,
    "lng": 104.251608,
    "tel": "0874-4625666"
  },
  {
    "city": "曲靖市",
    "name": "曲靖九洲医院",
    "lat": 25.47757,
    "lng": 103.80222,
    "tel": "0874-8965555;15911471152"
  },
  {
    "city": "重庆市",
    "name": "万州华美美容",
    "lat": 30.813453,
    "lng": 108.373481,
    "tel": "023-58586969"
  },
  {
    "city": "",
    "name": "重庆市巴南区华山",
    "lat": 29.43128,
    "lng": 106.536962,
    "tel": ""
  },
  {
    "city": "重庆市",
    "name": "重庆市交通行政执法总队(红锦大道)",
    "lat": 29.589965,
    "lng": 106.521536,
    "tel": ""
  },
  {
    "city": "重庆市",
    "name": "重庆现代女子医院",
    "lat": 29.532553,
    "lng": 106.575004,
    "tel": "023-62908322;023-62901999;023-62808918"
  },
  {
    "city": "重庆市",
    "name": "重庆都市俪人医院",
    "lat": 29.587742,
    "lng": 106.508398,
    "tel": "023-67663999"
  },
  {
    "city": "重庆市",
    "name": "中共博生和美妇产医院支部委员会",
    "lat": 30.8168,
    "lng": 108.368559,
    "tel": "023-58561111"
  },
  {
    "city": "重庆市",
    "name": "万州和美妇产医院",
    "lat": 30.816724,
    "lng": 108.36867,
    "tel": "023-62501542;023-58723999;15223523981"
  },
  {
    "city": "重庆市",
    "name": "涪陵和美妇产医院",
    "lat": 29.715448,
    "lng": 107.399851,
    "tel": "023-62501542;023-72272060"
  },
  {
    "city": "重庆市",
    "name": "爱德华医院(天陈路)",
    "lat": 29.550328,
    "lng": 106.454564,
    "tel": "023-65346666;023-65366999"
  },
  {
    "city": "重庆市",
    "name": "重庆五洲女子医院",
    "lat": 29.530555,
    "lng": 106.518614,
    "tel": "023-68816687;023-68812999;023-68585588"
  },
  {
    "city": "重庆市",
    "name": "重庆安琪儿妇产医院",
    "lat": 29.572423,
    "lng": 106.494294,
    "tel": "023-67113333"
  },
  {
    "city": "重庆市",
    "name": "新桥医院",
    "lat": 29.526322,
    "lng": 106.441334,
    "tel": "023-68755000;023-68755114"
  },
  {
    "city": "重庆市",
    "name": "重庆北大阳光医院",
    "lat": 29.585797,
    "lng": 106.524818,
    "tel": "023-86071999;023-86073999"
  },
  {
    "city": "重庆市",
    "name": "爱瑞阳光眼科医院",
    "lat": 30.810346,
    "lng": 108.382407,
    "tel": "023-85771991;023-85766000;023-85771985"
  },
  {
    "city": "重庆市",
    "name": "爱德华医院(天陈路)",
    "lat": 29.550328,
    "lng": 106.454564,
    "tel": "023-65346666;023-65366999"
  },
  {
    "city": "重庆市",
    "name": "重庆生殖健康医院",
    "lat": 29.575512,
    "lng": 106.525755,
    "tel": "023-89182998;023-89182806;023-89188918"
  },
  {
    "city": "重庆市",
    "name": "重庆红楼医院",
    "lat": 29.54275,
    "lng": 106.518762,
    "tel": "023-63638188;023-68716871;13788831002"
  },
  {
    "city": "重庆市",
    "name": "中国人民解放军第三二四医院",
    "lat": 29.572215,
    "lng": 106.542382,
    "tel": "023-68762120;023-68762100"
  },
  {
    "city": "重庆市",
    "name": "涪陵三峡医院",
    "lat": 29.6921,
    "lng": 107.39641,
    "tel": "023-72243333;023-72225108;023-86112217"
  },
  {
    "city": "重庆市",
    "name": "重庆市江北区人民医院(红十字会医院)A区",
    "lat": 29.56559,
    "lng": 106.537753,
    "tel": "023-88519100"
  },
  {
    "city": "成都市",
    "name": "双流长征综合医院",
    "lat": 30.579319,
    "lng": 103.912038,
    "tel": "028-85801120"
  },
  {
    "city": "成都市",
    "name": "成都博爱医院",
    "lat": 30.65,
    "lng": 104.091217,
    "tel": "028-68999999;028-64656055"
  },
  {
    "city": "成都市",
    "name": "成都丽人医院",
    "lat": 30.666195,
    "lng": 104.062986,
    "tel": "028-66112233;028-86611111"
  },
  {
    "city": "成都市",
    "name": "四川省成都市新都区华美村",
    "lat": 30.773243,
    "lng": 104.047497,
    "tel": ""
  },
  {
    "city": "成都市",
    "name": "四川华美紫馨医学美容医院",
    "lat": 30.619202,
    "lng": 104.047511,
    "tel": "028-62988882;028-62988865"
  },
  {
    "city": "成都市",
    "name": "安琪儿妇产医院(桂溪路)",
    "lat": 30.610149,
    "lng": 104.075536,
    "tel": "028-81922222;028-81219999;4006819222"
  },
  {
    "city": "成都市",
    "name": "蜀都乳腺医院",
    "lat": 30.675408,
    "lng": 104.062315,
    "tel": "028-88155555"
  },
  {
    "city": "成都市",
    "name": "成都瑞恩糖尿病医院",
    "lat": 30.67375,
    "lng": 104.070444,
    "tel": "028-86610000;4000669190"
  },
  {
    "city": "成都市",
    "name": "曙光男科医院",
    "lat": 30.663165,
    "lng": 104.044967,
    "tel": "028-87792169;028-82866666"
  },
  {
    "city": "成都市",
    "name": "成都玛丽亚妇产儿童医院(总院)",
    "lat": 30.681009,
    "lng": 104.052639,
    "tel": "028-65569999;028-87739999"
  },
  {
    "city": "成都市",
    "name": "成都欧亚男科医院",
    "lat": 30.657069,
    "lng": 104.044673,
    "tel": "028-66599999;028-87030666;18780290535"
  },
  {
    "city": "成都市",
    "name": "阳光妇科医院",
    "lat": 30.708839,
    "lng": 104.55912,
    "tel": "028-84916120"
  },
  {
    "city": "成都市",
    "name": "成都鼓楼医院",
    "lat": 30.665474,
    "lng": 104.080163,
    "tel": "028-86933699;028-86913665;028-86928868"
  },
  {
    "city": "成都市",
    "name": "成都济民女子医院",
    "lat": 30.681027,
    "lng": 104.06961,
    "tel": "028-83395668;028-83399018"
  },
  {
    "city": "成都市",
    "name": "成都瑞恩糖尿病医院",
    "lat": 30.67375,
    "lng": 104.070444,
    "tel": "028-86610000;4000669190"
  },
  {
    "city": "雅安市",
    "name": "中国人民解放军第三十七医院",
    "lat": 29.992647,
    "lng": 103.020758,
    "tel": "0835-2823085"
  },
  {
    "city": "遵义市",
    "name": "遵义旭隆宾馆茅草铺客运站店",
    "lat": 27.73016,
    "lng": 106.944822,
    "tel": "15185255299"
  },
  {
    "city": "凉山彝族自治州",
    "name": "凉山妇产医院",
    "lat": 27.873555,
    "lng": 102.262571,
    "tel": "0834-6959999"
  },
  {
    "city": "凉山彝族自治州",
    "name": "凉山华西医院",
    "lat": 27.891091,
    "lng": 102.234151,
    "tel": "0834-2899999"
  },
  {
    "city": "南充市",
    "name": "中国人民解放军第五十一医院",
    "lat": 30.809885,
    "lng": 106.090691,
    "tel": "0817-2395151;0817-8699399"
  },
  {
    "city": "乐山市",
    "name": "武警四川总队医院",
    "lat": 29.589104,
    "lng": 103.758514,
    "tel": "0833-2452888;0833-2443077"
  },
  {
    "city": "福州市",
    "name": "福州美莱华美美容医院(塔头路)",
    "lat": 26.093847,
    "lng": 119.31759,
    "tel": "0591-22966666"
  },
  {
    "city": "福州市",
    "name": "福州鼓楼医院",
    "lat": 26.08466,
    "lng": 119.306433,
    "tel": "0591-87619721;0591-87677120;4008990333"
  },
  {
    "city": "福州市",
    "name": "福州现代妇产医院",
    "lat": 26.111863,
    "lng": 119.298,
    "tel": "0591-88501660;0591-88211111"
  },
  {
    "city": "福州市",
    "name": "福州左海医院",
    "lat": 26.097979,
    "lng": 119.28321,
    "tel": "0591-87836222;0591-87836111;0591-87753700"
  },
  {
    "city": "福州市",
    "name": "福州市第二医院",
    "lat": 26.042186,
    "lng": 119.316221,
    "tel": "0591-88039333;0591-88039222;0591-88039111"
  },
  {
    "city": "福州市",
    "name": "福州东南妇幼医院",
    "lat": 26.059884,
    "lng": 119.34284,
    "tel": "0591-83827951;0591-22969999"
  },
  {
    "city": "福州市",
    "name": "福兴妇产医院",
    "lat": 26.075664,
    "lng": 119.348621,
    "tel": "0591-88055555;0591-88055116"
  },
  {
    "city": "舟山市",
    "name": "舟山现代妇科医院",
    "lat": 30.017692,
    "lng": 122.108096,
    "tel": "0580-2261111;0580-8232222"
  },
  {
    "city": "舟山市",
    "name": "麦克斯街舞工作室",
    "lat": 29.987344,
    "lng": 122.208527,
    "tel": "0580-8834288;18058080459"
  },
  {
    "city": "舟山市",
    "name": "舟山女子医院",
    "lat": 30.01615,
    "lng": 122.10816,
    "tel": "0580-2261111"
  },
  {
    "city": "厦门市",
    "name": "登特口腔(莲花南路)",
    "lat": 24.48632,
    "lng": 118.126738,
    "tel": "0592-5139999;0592-2229888;13959201588"
  },
  {
    "city": "厦门市",
    "name": "厦门友好妇产医院",
    "lat": 24.483221,
    "lng": 118.127227,
    "tel": "0592-3688888"
  },
  {
    "city": "厦门市",
    "name": "康乐门诊部(兴隆路)",
    "lat": 24.504354,
    "lng": 118.120407,
    "tel": "0592-2616658"
  },
  {
    "city": "莆田市",
    "name": "莆田丽人妇科医院",
    "lat": 25.427816,
    "lng": 119.001637,
    "tel": "0594-2827283;0594-2224222"
  },
  {
    "city": "莆田市",
    "name": "华侨大学附属盛兴医院",
    "lat": 25.313275,
    "lng": 119.100038,
    "tel": "0594-5955555;0594-5566666"
  },
  {
    "city": "莆田市",
    "name": "莆田肛泰中西医结合医院",
    "lat": 25.425181,
    "lng": 119.00818,
    "tel": "0594-7590166;0594-2205199"
  },
  {
    "city": "莆田市",
    "name": "莆田口腔医院",
    "lat": 25.441399,
    "lng": 119.017044,
    "tel": "0594-2298866"
  },
  {
    "city": "宁波市",
    "name": "宁波美莱整形美容",
    "lat": 29.868412,
    "lng": 121.559332,
    "tel": "0574-87759999"
  },
  {
    "city": "宁波市",
    "name": "宁波马应龙医院",
    "lat": 29.901508,
    "lng": 121.585073,
    "tel": "0574-27610120;0574-27769999"
  },
  {
    "city": "宁波市",
    "name": "宁波虹桥男科医院",
    "lat": 29.859826,
    "lng": 121.58498,
    "tel": "0574-89115115;0574-56110888;13345989229"
  },
  {
    "city": "宁波市",
    "name": "宁波欧亚男科医院",
    "lat": 29.855386,
    "lng": 121.553124,
    "tel": "0574-27859999;0574-27859906"
  },
  {
    "city": "宁波市",
    "name": "宁波甬城医院",
    "lat": 29.889342,
    "lng": 121.562743,
    "tel": "0574-27859678;4000923120"
  },
  {
    "city": "宁波市",
    "name": "圣爱医院(新江路)",
    "lat": 30.174096,
    "lng": 121.231553,
    "tel": "0574-63916391;0574-66308019;4008629998"
  },
  {
    "city": "杭州市",
    "name": "福艾堂",
    "lat": 29.974097,
    "lng": 119.729101,
    "tel": ""
  },
  {
    "city": "杭州市",
    "name": "玛莉亚妇产医院",
    "lat": 30.242721,
    "lng": 120.197608,
    "tel": "0571-86521200;4008833120"
  },
  {
    "city": "杭州市",
    "name": "杭州虹桥医院",
    "lat": 30.244513,
    "lng": 120.180569,
    "tel": "0571-87828888;0571-87292626;18667919532"
  },
  {
    "city": "杭州市",
    "name": "杭州市第三人民医院(泰地·万新大厦北)",
    "lat": 30.249125,
    "lng": 120.173791,
    "tel": "0571-87823106;0571-87823126"
  },
  {
    "city": "杭州市",
    "name": "杭州天目山医院",
    "lat": 30.260891,
    "lng": 120.107714,
    "tel": "0571-85129999;0571-85028055"
  },
  {
    "city": "杭州市",
    "name": "杭州萧山九龙男科医院",
    "lat": 30.146585,
    "lng": 120.276762,
    "tel": "0571-82659999;4000913120"
  },
  {
    "city": "杭州市",
    "name": "杭州广仁医院",
    "lat": 30.276606,
    "lng": 120.203599,
    "tel": "0571-86993939;0571-86786666;0571-87678300"
  },
  {
    "city": "杭州市",
    "name": "杭州阿波罗男子医院",
    "lat": 30.267103,
    "lng": 120.179744,
    "tel": "0571-85093333"
  },
  {
    "city": "杭州市",
    "name": "杭州和睦医院",
    "lat": 30.312898,
    "lng": 120.124224,
    "tel": "0571-88181000;0571-88180666;0571-56337301"
  },
  {
    "city": "湖州市",
    "name": "湖州阳光妇科医院",
    "lat": 30.883712,
    "lng": 120.097762,
    "tel": "0572-2191888"
  },
  {
    "city": "泉州市",
    "name": "华美整形美容(新华南路)",
    "lat": 24.900841,
    "lng": 118.583641,
    "tel": "0595-28266666;0595-28888501;0595-22380128"
  },
  {
    "city": "泉州市",
    "name": "华侨医院(公交站)",
    "lat": 24.742826,
    "lng": 118.642752,
    "tel": ""
  },
  {
    "city": "泉州市",
    "name": "泉州丰泽新阳光妇科医院",
    "lat": 24.886695,
    "lng": 118.602237,
    "tel": "0595-28061111;0595-28966788"
  },
  {
    "city": "泉州市",
    "name": "泉州丰泽玛丽医院",
    "lat": 24.91135,
    "lng": 118.613398,
    "tel": "0595-22871313;0595-22197666;4009901113"
  },
  {
    "city": "泉州市",
    "name": "田安路东湖大厦黄鹤楼停车场",
    "lat": 24.911655,
    "lng": 118.613716,
    "tel": "0595-22197666"
  },
  {
    "city": "嘉兴市",
    "name": "浙江新安国际医院",
    "lat": 30.768099,
    "lng": 120.699524,
    "tel": "0573-82299999;0573-82068999"
  },
  {
    "city": "嘉兴市",
    "name": "曙光医院",
    "lat": 30.732972,
    "lng": 120.767945,
    "tel": "0573-82535541;0573-82535566;0573-82535501"
  },
  {
    "city": "嘉兴市",
    "name": "博爱医院",
    "lat": 30.75735,
    "lng": 120.738781,
    "tel": "0573-82056999"
  },
  {
    "city": "嘉兴市",
    "name": "曙光医院",
    "lat": 30.732972,
    "lng": 120.767945,
    "tel": "0573-82535541;0573-82535566;0573-82535501"
  },
  {
    "city": "台州市",
    "name": "温岭和平医院",
    "lat": 28.497241,
    "lng": 121.369339,
    "tel": "0576-86429999"
  },
  {
    "city": "温州市",
    "name": "温州东华医院",
    "lat": 27.99772,
    "lng": 120.655669,
    "tel": "0577-55581186;0577-88286120;4006005562"
  },
  {
    "city": "温州市",
    "name": "瑞安廖金銮妇科诊所",
    "lat": 27.791225,
    "lng": 120.58918,
    "tel": ""
  },
  {
    "city": "温州市",
    "name": "北白象协和医院",
    "lat": 28.032646,
    "lng": 120.858514,
    "tel": "0577-62968009;13819766808"
  },
  {
    "city": "温州市",
    "name": "温州建国医院",
    "lat": 27.976978,
    "lng": 120.660756,
    "tel": "0577-56811996;0577-56889999;0577-56766888"
  },
  {
    "city": "温州市",
    "name": "锦湖街道社区卫生服务中心",
    "lat": 27.787072,
    "lng": 120.626007,
    "tel": "0577-65827302;0577-65615064"
  },
  {
    "city": "温州市",
    "name": "长庚耳鼻喉医院",
    "lat": 27.984998,
    "lng": 120.723317,
    "tel": "0577-56815681;0577-56580313;4006703120"
  },
  {
    "city": "龙岩市",
    "name": "龙岩牡丹妇产医院",
    "lat": 25.065805,
    "lng": 117.02304,
    "tel": "0597-2966666"
  },
  {
    "city": "龙岩市",
    "name": "龙岩新阳光医院",
    "lat": 25.089656,
    "lng": 117.024563,
    "tel": "0597-2555555;0597-2285099"
  },
  {
    "city": "济南市",
    "name": "山东东方男科医院",
    "lat": 36.622064,
    "lng": 117.008828,
    "tel": "0531-82988882;0531-82989992"
  },
  {
    "city": "济南市",
    "name": "紫荆花医院",
    "lat": 36.662079,
    "lng": 117.067684,
    "tel": "0531-88384222;0531-88316981"
  },
  {
    "city": "济南市",
    "name": "山东红十字会医院",
    "lat": 36.638746,
    "lng": 117.001649,
    "tel": "0531-81765555;0531-82866666;4006586699"
  },
  {
    "city": "济南市",
    "name": "济南106医院",
    "lat": 36.648161,
    "lng": 116.910008,
    "tel": "0531-69922232;0531-87296666"
  },
  {
    "city": "济南市",
    "name": "济南中医不孕不育医院",
    "lat": 36.654067,
    "lng": 116.942193,
    "tel": "0531-66779999;0531-81612602;4006566120"
  },
  {
    "city": "济南市",
    "name": "济南中医白癜风医院",
    "lat": 36.681994,
    "lng": 117.004259,
    "tel": "0531-66710000;4006633123"
  },
  {
    "city": "济南市",
    "name": "济南远大脑科医院",
    "lat": 36.669354,
    "lng": 117.076864,
    "tel": "0531-82955376"
  },
  {
    "city": "济南市",
    "name": "济南中医肝病医院",
    "lat": 36.687719,
    "lng": 116.972038,
    "tel": "0531-88252222;0531-89829999"
  },
  {
    "city": "济南市",
    "name": "济南中医静脉曲张医院",
    "lat": 36.677731,
    "lng": 117.083466,
    "tel": "0531-86972999;0531-88193101;0531-88588559"
  },
  {
    "city": "济南市",
    "name": "济南中医风湿病医院",
    "lat": 36.674082,
    "lng": 117.017733,
    "tel": "0531-55589999;4008008881"
  },
  {
    "city": "济南市",
    "name": "济南中山肝病医院",
    "lat": 36.664162,
    "lng": 117.061742,
    "tel": "0531-88514222;0531-85922222"
  },
  {
    "city": "济南市",
    "name": "济南中德骨科医院(济齐路)",
    "lat": 36.674757,
    "lng": 116.961636,
    "tel": "0531-85555120;0531-68690000;15898919002"
  },
  {
    "city": "济南市",
    "name": "济南中研皮肤病医院",
    "lat": 36.652766,
    "lng": 116.928779,
    "tel": "0531-62337888;0531-55625813;15165002102"
  },
  {
    "city": "济南市",
    "name": "济南九龙泌尿专科医院",
    "lat": 36.683858,
    "lng": 117.034528,
    "tel": "0531-88982288;0531-66722222;0531-88981199"
  },
  {
    "city": "济南市",
    "name": "济南乳腺病医院",
    "lat": 36.676966,
    "lng": 117.010111,
    "tel": "0531-66677777;0531-67883376;18660816062"
  },
  {
    "city": "济南市",
    "name": "济南乳腺病医院",
    "lat": 36.676966,
    "lng": 117.010111,
    "tel": "0531-66677777;0531-67883376;18660816062"
  },
  {
    "city": "济南市",
    "name": "济南五洲医院",
    "lat": 36.694188,
    "lng": 116.97971,
    "tel": "0531-85861199;0531-85909019;4000119095"
  },
  {
    "city": "济南市",
    "name": "济南六一儿童医院",
    "lat": 36.680213,
    "lng": 117.077048,
    "tel": "0531-88786161;0531-66666120"
  },
  {
    "city": "济南市",
    "name": "济南华夏医院(北门)",
    "lat": 36.680202,
    "lng": 117.002695,
    "tel": ""
  },
  {
    "city": "济南市",
    "name": "济南协和肝病医院",
    "lat": 36.697094,
    "lng": 116.99854,
    "tel": "0531-89006006;0531-85811138"
  },
  {
    "city": "济南市",
    "name": "济南和谐妇科医院",
    "lat": 36.674898,
    "lng": 117.040255,
    "tel": "0531-66660197;0531-66660198;0531-88781111"
  },
  {
    "city": "济南市",
    "name": "济南哮喘病医院",
    "lat": 36.600452,
    "lng": 117.004819,
    "tel": "0531-66621115;0531-66621111;4006053105"
  },
  {
    "city": "济南市",
    "name": "圣玛丽亚妇产医院",
    "lat": 36.602074,
    "lng": 117.015617,
    "tel": "0531-58696666"
  },
  {
    "city": "济南市",
    "name": "济南复元康复医院",
    "lat": 36.703594,
    "lng": 117.084454,
    "tel": "18615254112"
  },
  {
    "city": "济南市",
    "name": "济南妇科医院",
    "lat": 36.644894,
    "lng": 116.995133,
    "tel": "0531-80969918;0531-80969999"
  },
  {
    "city": "济南市",
    "name": "济南美容整形医院",
    "lat": 36.65794,
    "lng": 117.031113,
    "tel": "0531-86078177;0531-86120677"
  },
  {
    "city": "济南市",
    "name": "泉城医院",
    "lat": 36.669073,
    "lng": 117.066801,
    "tel": "0531-88193352;0531-82022222;0531-88190111"
  },
  {
    "city": "济南市",
    "name": "济南海峡美容整形医院",
    "lat": 36.68594,
    "lng": 117.078264,
    "tel": "0531-58710866;0531-58819999;0531-58677997"
  },
  {
    "city": "济南市",
    "name": "济南现代皮肤病医院",
    "lat": 36.64448,
    "lng": 117.049301,
    "tel": "0531-58816666;0531-86985688;4006123696"
  },
  {
    "city": "济南市",
    "name": "山东济南白癜风医院",
    "lat": 36.67633,
    "lng": 116.978261,
    "tel": "0531-88753333;0531-55702177;4006913999"
  },
  {
    "city": "济南市",
    "name": "济南真爱妇科医院",
    "lat": 36.654214,
    "lng": 116.993274,
    "tel": "0531-86266966"
  },
  {
    "city": "济南市",
    "name": "济南神康医院",
    "lat": 36.702096,
    "lng": 117.15617,
    "tel": "0531-88190909"
  },
  {
    "city": "济南市",
    "name": "济南美莱整形美容",
    "lat": 36.650359,
    "lng": 117.051549,
    "tel": "0531-66598555;0531-66599555"
  },
  {
    "city": "济南市",
    "name": "济南耳鼻喉医院",
    "lat": 36.621176,
    "lng": 117.007439,
    "tel": "0531-83178888"
  },
  {
    "city": "济南市",
    "name": "济南肛肠医院",
    "lat": 36.618582,
    "lng": 117.005402,
    "tel": "0531-82988881;0531-82988882;0531-82979999"
  },
  {
    "city": "济南市",
    "name": "济南股骨头医院",
    "lat": 36.647453,
    "lng": 116.937394,
    "tel": "0531-87189799;0531-87901111"
  },
  {
    "city": "济南市",
    "name": "济南肾病医院",
    "lat": 36.692063,
    "lng": 116.948846,
    "tel": "0531-55691111;0531-55691122;4000531222"
  },
  {
    "city": "济南市",
    "name": "济南胃肠病医院",
    "lat": 36.681128,
    "lng": 117.029521,
    "tel": "0531-66676999;0531-85897936"
  },
  {
    "city": "济南市",
    "name": "济南血液病医院",
    "lat": 36.698607,
    "lng": 117.084223,
    "tel": "0531-86953333;4006780120"
  },
  {
    "city": "济南市",
    "name": "济南银屑病医院",
    "lat": 36.71398,
    "lng": 117.078732,
    "tel": "0531-88012345;0531-68817120;0531-88966606"
  },
  {
    "city": "济南市",
    "name": "山东济南阳光女子医院",
    "lat": 36.654745,
    "lng": 117.020261,
    "tel": "0531-86900055;0531-86900066;0531-86928282"
  },
  {
    "city": "济南市",
    "name": "济南集美美容医院",
    "lat": 36.658771,
    "lng": 117.039593,
    "tel": "0531-86039999"
  },
  {
    "city": "济南市",
    "name": "济南青华医院",
    "lat": 36.640988,
    "lng": 117.001429,
    "tel": "0531-83189999;4006400989"
  },
  {
    "city": "济南市",
    "name": "济南骨科医院",
    "lat": 36.632839,
    "lng": 117.000413,
    "tel": "0531-67966666;4000107799"
  },
  {
    "city": "济南市",
    "name": "山东大学附属济南市中心医院",
    "lat": 36.670384,
    "lng": 117.045678,
    "tel": "0531-85695114"
  },
  {
    "city": "潍坊市",
    "name": "诸城博爱医院",
    "lat": 35.987658,
    "lng": 119.41696,
    "tel": ""
  },
  {
    "city": "潍坊市",
    "name": "潍坊长安男科医院",
    "lat": 36.715871,
    "lng": 119.124887,
    "tel": "0536-2222120;0536-2703333"
  },
  {
    "city": "潍坊市",
    "name": "潍坊和平妇科医院",
    "lat": 36.709646,
    "lng": 119.154878,
    "tel": "0536-8592999;0536-8891969"
  },
  {
    "city": "青岛市",
    "name": "青岛妇婴医院",
    "lat": 36.067215,
    "lng": 120.314426,
    "tel": "0532-58870036;0532-58977230;0532-80686666"
  },
  {
    "city": "青岛市",
    "name": "青岛坤如玛丽妇产医院",
    "lat": 36.090988,
    "lng": 120.378617,
    "tel": "0532-85812233;0532-85835666;13969625330"
  },
  {
    "city": "青岛市",
    "name": "长征医院",
    "lat": 36.088052,
    "lng": 120.349591,
    "tel": "0532-88994428;0532-83711000;0532-66696066"
  },
  {
    "city": "青岛市",
    "name": "青岛曙光医院",
    "lat": 36.081345,
    "lng": 120.408503,
    "tel": "0532-82652555;0532-85732222"
  },
  {
    "city": "青岛市",
    "name": "青岛曙光医院",
    "lat": 36.081345,
    "lng": 120.408503,
    "tel": "0532-82652555;0532-85732222"
  },
  {
    "city": "青岛市",
    "name": "百花鑫集美容中心",
    "lat": 36.01704,
    "lng": 120.16155,
    "tel": "18863940278"
  },
  {
    "city": "青岛市",
    "name": "青岛新阳光妇产医院",
    "lat": 36.158244,
    "lng": 120.420458,
    "tel": "0532-68696968;0532-87061886;0532-82000799"
  },
  {
    "city": "德州市",
    "name": "齐河县人民医院-内六病区",
    "lat": 36.796578,
    "lng": 116.757004,
    "tel": ""
  },
  {
    "city": "威海市",
    "name": "威海现代女子整形美容医院",
    "lat": 37.471841,
    "lng": 122.134099,
    "tel": "0631-5161990"
  },
  {
    "city": "聊城市",
    "name": "聊城市心脑血管病医院",
    "lat": 36.465874,
    "lng": 115.98217,
    "tel": "0635-8383101;0635-8383100"
  },
  {
    "city": "淄博市",
    "name": "女子医院(公交站)",
    "lat": 36.815937,
    "lng": 118.0504,
    "tel": ""
  },
  {
    "city": "哈尔滨市",
    "name": "玛丽亚妇产医院",
    "lat": 45.741869,
    "lng": 126.669426,
    "tel": "0451-82676666;0451-82807966"
  },
  {
    "city": "哈尔滨市",
    "name": "黑龙江东北肝胆医院",
    "lat": 45.74165,
    "lng": 126.654135,
    "tel": "0451-58886377;0451-82610088;0451-57809999"
  },
  {
    "city": "哈尔滨市",
    "name": "黑龙江和平医院",
    "lat": 45.764358,
    "lng": 126.670662,
    "tel": "0451-82827999"
  },
  {
    "city": "哈尔滨市",
    "name": "黑龙江和美妇产医院(赣水路)",
    "lat": 45.739233,
    "lng": 126.668187,
    "tel": "0451-87256888;0451-88895888"
  },
  {
    "city": "哈尔滨市",
    "name": "九龙医院(哈药路)",
    "lat": 45.754937,
    "lng": 126.603209,
    "tel": "0451-84832055"
  },
  {
    "city": "哈尔滨市",
    "name": "哈尔滨欧亚男科医院",
    "lat": 45.780396,
    "lng": 126.673582,
    "tel": "0451-86134299;0451-86138888;0451-86042199"
  },
  {
    "city": "哈尔滨市",
    "name": "黑龙江长庚耳鼻喉医院",
    "lat": 45.741694,
    "lng": 126.625085,
    "tel": "0451-55587507;0451-55508888;4006286777"
  },
  {
    "city": "哈尔滨市",
    "name": "黑龙江阳光女子专科医院",
    "lat": 45.752145,
    "lng": 126.652887,
    "tel": "0451-83198888;0451-58819845"
  },
  {
    "city": "哈尔滨市",
    "name": "哈尔滨武警黄金医院妇科",
    "lat": 45.706362,
    "lng": 126.641857,
    "tel": ""
  },
  {
    "city": "长春市",
    "name": "长春同济医院(康平街)",
    "lat": 43.898044,
    "lng": 125.308532,
    "tel": "0431-85914788"
  },
  {
    "city": "长春市",
    "name": "武警医院(公交站)",
    "lat": 43.940363,
    "lng": 125.299137,
    "tel": ""
  },
  {
    "city": "长春市",
    "name": "长春长庚耳鼻喉医院",
    "lat": 43.885686,
    "lng": 125.34056,
    "tel": "0431-87660123;0431-88753333;4006703120"
  },
  {
    "city": "长春市",
    "name": "长春阳光妇科医院",
    "lat": 43.88998,
    "lng": 125.341891,
    "tel": "0431-88727120"
  },
  {
    "city": "长春市",
    "name": "阳光口腔",
    "lat": 43.86666,
    "lng": 125.30165,
    "tel": ""
  },
  {
    "city": "四平市",
    "name": "阳光医院(河南广场)",
    "lat": 43.503341,
    "lng": 124.822429,
    "tel": "0434-6297799"
  },
  {
    "city": "延边朝鲜族自治州",
    "name": "延吉博生现代妇科医院",
    "lat": 42.916953,
    "lng": 129.512954,
    "tel": "0433-2900900"
  },
  {
    "city": "沈阳市",
    "name": "沈阳市于洪区北陵人民医院",
    "lat": 41.840578,
    "lng": 123.413272,
    "tel": ""
  },
  {
    "city": "沈阳市",
    "name": "沈阳曙光医院",
    "lat": 41.789157,
    "lng": 123.418428,
    "tel": "024-62697777"
  },
  {
    "city": "沈阳市",
    "name": "武警医院",
    "lat": 41.86613,
    "lng": 123.416229,
    "tel": "024-86868659;024-86526638;024-31208499"
  },
  {
    "city": "沈阳市",
    "name": "解放军第四六三医院整形美容中心",
    "lat": 41.797206,
    "lng": 123.48078,
    "tel": "024-62506888"
  },
  {
    "city": "大连市",
    "name": "大连市妇产医院(白山路)",
    "lat": 38.915088,
    "lng": 121.588313,
    "tel": "0411-84623722"
  },
  {
    "city": "大连市",
    "name": "玉泉阁洗浴",
    "lat": 39.705009,
    "lng": 122.952402,
    "tel": "0411-89855311;15724576585"
  },
  {
    "city": "大连市",
    "name": "大连阳光医院",
    "lat": 38.904089,
    "lng": 121.598786,
    "tel": "0411-84320952;0411-84317000"
  },
  {
    "city": "无锡市",
    "name": "无锡玛丽亚医院",
    "lat": 31.574691,
    "lng": 120.292061,
    "tel": "0510-82792222;0510-82749666;4008288889"
  },
  {
    "city": "无锡市",
    "name": "无锡嘉仕恒信医院",
    "lat": 31.550049,
    "lng": 120.266871,
    "tel": "0510-88206666;0510-85011073"
  },
  {
    "city": "无锡市",
    "name": "无锡南站医院",
    "lat": 31.565056,
    "lng": 120.319376,
    "tel": "0510-85015358;0510-85048480"
  },
  {
    "city": "无锡市",
    "name": "无锡虹桥医院",
    "lat": 31.564895,
    "lng": 120.339434,
    "tel": "0510-82136888;18626081566;4000510170"
  },
  {
    "city": "无锡市",
    "name": "东方女子医院先锋村计划生育服务室",
    "lat": 31.901224,
    "lng": 120.290349,
    "tel": ""
  },
  {
    "city": "无锡市",
    "name": "武警医院(龙池路)",
    "lat": 31.360734,
    "lng": 119.801597,
    "tel": "0510-87075011;0510-87075018;0510-87075199"
  },
  {
    "city": "无锡市",
    "name": "江阴九龙医院(西南门)",
    "lat": 31.895497,
    "lng": 120.289602,
    "tel": ""
  },
  {
    "city": "无锡市",
    "name": "无锡新区凤凰医院",
    "lat": 31.547209,
    "lng": 120.349607,
    "tel": "0510-85227441;0510-85229597;0510-85221999"
  },
  {
    "city": "南京市",
    "name": "江苏施尔美整形美容医院",
    "lat": 32.033328,
    "lng": 118.786749,
    "tel": "025-83533399;4006900188;025-84488400"
  },
  {
    "city": "南京市",
    "name": "南京曙光医院",
    "lat": 32.009686,
    "lng": 118.785298,
    "tel": "025-84410000;025-52410093;025-52256666"
  },
  {
    "city": "南京市",
    "name": "博爱医院(同夏路)",
    "lat": 31.960343,
    "lng": 118.866521,
    "tel": "025-52188554;025-52187885;025-52292666"
  },
  {
    "city": "南京市",
    "name": "江宁众彩门诊部",
    "lat": 31.988622,
    "lng": 118.891291,
    "tel": ""
  },
  {
    "city": "南京市",
    "name": "南京世纪现代妇产医院",
    "lat": 31.943106,
    "lng": 118.867969,
    "tel": "025-52167333;025-86900000"
  },
  {
    "city": "南京市",
    "name": "南京建国男科医院",
    "lat": 32.01777,
    "lng": 118.800464,
    "tel": "025-52238888;025-52246802"
  },
  {
    "city": "南京市",
    "name": "江苏省南京市鼓楼区妇科(江苏省人民医院门诊楼)",
    "lat": 32.049853,
    "lng": 118.770393,
    "tel": ""
  },
  {
    "city": "南京市",
    "name": "南京阳光心理咨询中心",
    "lat": 32.07218,
    "lng": 118.772562,
    "tel": "025-83690068;18951705690"
  },
  {
    "city": "南京市",
    "name": "南京港龙医院",
    "lat": 32.030323,
    "lng": 118.833908,
    "tel": "025-52323232;025-83416888;025-84289005"
  },
  {
    "city": "南京市",
    "name": "中国人民解放军第四五四医院",
    "lat": 32.032617,
    "lng": 118.800241,
    "tel": "025-80865515;025-80865000"
  },
  {
    "city": "南京市",
    "name": "南京长江医院",
    "lat": 32.090487,
    "lng": 118.765172,
    "tel": "025-83416999;025-85262102"
  },
  {
    "city": "南京市",
    "name": "南京医科大学第二附属医院协作医院",
    "lat": 32.206752,
    "lng": 118.747574,
    "tel": ""
  },
  {
    "city": "南京市",
    "name": "南京医科大学附属友谊整形医院",
    "lat": 32.046797,
    "lng": 118.777024,
    "tel": "025-86677802;025-86677828;4008887822"
  },
  {
    "city": "南京市",
    "name": "八一医院",
    "lat": 32.037454,
    "lng": 118.791036,
    "tel": "025-80864419;025-85868181"
  },
  {
    "city": "南京市",
    "name": "四五四妇医院门诊二部妇产科门诊",
    "lat": 32.027025,
    "lng": 118.796017,
    "tel": ""
  },
  {
    "city": "南京市",
    "name": "南京脑科医院",
    "lat": 32.053527,
    "lng": 118.772417,
    "tel": "025-82296000;025-82296409"
  },
  {
    "city": "南京市",
    "name": "迈皋桥医院",
    "lat": 32.104194,
    "lng": 118.806314,
    "tel": "025-85504083;025-85502008;025-87756441"
  },
  {
    "city": "南京市",
    "name": "南京市第一医院东院门诊部",
    "lat": 32.023593,
    "lng": 118.822745,
    "tel": "025-84685018"
  },
  {
    "city": "南京市",
    "name": "南京华美美容医院",
    "lat": 32.050638,
    "lng": 118.810054,
    "tel": "025-83336888"
  },
  {
    "city": "南京市",
    "name": "南京军区机关医院",
    "lat": 32.046452,
    "lng": 118.810488,
    "tel": "025-84825150;025-83858885;4000253120"
  },
  {
    "city": "南京市",
    "name": "南京军区机关医院",
    "lat": 32.046452,
    "lng": 118.810488,
    "tel": "025-84825150;025-83858885;4000253120"
  },
  {
    "city": "南京市",
    "name": "南京长江医院",
    "lat": 32.090487,
    "lng": 118.765172,
    "tel": "025-83416999;025-85262102"
  },
  {
    "city": "南京市",
    "name": "南京长海医院(宁六公路辅路)",
    "lat": 32.14882,
    "lng": 118.708655,
    "tel": "025-86461195;025-84863999"
  },
  {
    "city": "南京市",
    "name": "亚韩医学美容医院",
    "lat": 31.945391,
    "lng": 118.847626,
    "tel": "025-52177777"
  },
  {
    "city": "南京市",
    "name": "仁品耳鼻喉医院",
    "lat": 32.01164,
    "lng": 118.784664,
    "tel": "025-85262032;4000255511"
  },
  {
    "city": "南京市",
    "name": "南京邦德骨科医院",
    "lat": 32.049786,
    "lng": 118.808143,
    "tel": "025-52228222;025-58525722"
  },
  {
    "city": "南京市",
    "name": "南京肛泰中医医院",
    "lat": 32.012721,
    "lng": 118.744703,
    "tel": "025-66660097;025-66662226;025-66662229"
  },
  {
    "city": "南京市",
    "name": "维多利亚国际整形美容",
    "lat": 32.034023,
    "lng": 118.772522,
    "tel": "025-52258888;4008113777;025-86628093"
  },
  {
    "city": "苏州市",
    "name": "张家港朝阳五官科医院",
    "lat": 31.869464,
    "lng": 120.530767,
    "tel": "0512-58983999;0512-58983991"
  },
  {
    "city": "泰州市",
    "name": "泰州市人民医院(迎春东路)",
    "lat": 32.482597,
    "lng": 119.914893,
    "tel": "0523-86606333;0523-86606342"
  },
  {
    "city": "盐城市",
    "name": "盐城协和医院疼痛康复中心",
    "lat": 33.390265,
    "lng": 120.155481,
    "tel": ""
  },
  {
    "city": "宿迁市",
    "name": "宿迁市妇产医院",
    "lat": 33.951635,
    "lng": 118.26724,
    "tel": "0527-84399120;0527-84399599"
  },
  {
    "city": "宿迁市",
    "name": "苏源阳光(公交站)",
    "lat": 33.447958,
    "lng": 118.193427,
    "tel": ""
  },
  {
    "city": "淮安市",
    "name": "中山医院(翔宇大道)",
    "lat": 33.606221,
    "lng": 119.047282,
    "tel": "0517-83776811;0517-83776804;0517-83832626"
  },
  {
    "city": "淮安市",
    "name": "幸福医院",
    "lat": 33.609085,
    "lng": 119.011678,
    "tel": "0517-83654599;0517-83654999"
  },
  {
    "city": "南通市",
    "name": "南通和美家妇产科医院",
    "lat": 31.966805,
    "lng": 120.89227,
    "tel": "0513-68688888;4000196868;15262762822"
  },
  {
    "city": "南通市",
    "name": "南通长城医院",
    "lat": 32.018387,
    "lng": 120.830786,
    "tel": "0513-88100000;4000138810;4008866182"
  },
  {
    "city": "武汉市",
    "name": "武汉华夏医院",
    "lat": 30.535709,
    "lng": 114.337666,
    "tel": "027-87275566"
  },
  {
    "city": "武汉市",
    "name": "武汉华美三级整形外科医院",
    "lat": 30.575269,
    "lng": 114.251896,
    "tel": "027-85268888;027-83330666;4000070606"
  },
  {
    "city": "武汉市",
    "name": "武汉现代妇产医院",
    "lat": 30.573881,
    "lng": 114.264089,
    "tel": "027-83606686;027-68836999;027-68836888;027-68836686"
  },
  {
    "city": "武汉市",
    "name": "新佳丽时尚广场",
    "lat": 30.574681,
    "lng": 114.293268,
    "tel": "027-51306488;027-51306566;027-51306588"
  },
  {
    "city": "武汉市",
    "name": "武汉现代妇产医院",
    "lat": 30.573881,
    "lng": 114.264089,
    "tel": "027-83606686;027-68836999;027-68836888;027-68836686"
  },
  {
    "city": "武汉市",
    "name": "特步(华仁医院西)",
    "lat": 30.524915,
    "lng": 114.3505,
    "tel": ""
  },
  {
    "city": "荆州市",
    "name": "荆州市华康医院",
    "lat": 30.340356,
    "lng": 112.216678,
    "tel": "0716-8516000"
  },
  {
    "city": "黄冈市",
    "name": "黄冈名仕医院停车场",
    "lat": 30.439539,
    "lng": 114.868729,
    "tel": ""
  },
  {
    "city": "襄阳市",
    "name": "襄阳市第五人民医院(西南门)",
    "lat": 32.036756,
    "lng": 112.158395,
    "tel": ""
  },
  {
    "city": "乌海市",
    "name": "乌海现代医院",
    "lat": 39.669431,
    "lng": 106.828553,
    "tel": "0473-6933333;0473-6961111"
  },
  {
    "city": "呼和浩特市",
    "name": "内蒙古天骄医院",
    "lat": 40.840632,
    "lng": 111.656553,
    "tel": "0471-5195999"
  },
  {
    "city": "呼和浩特市",
    "name": "呼和浩特五洲医院",
    "lat": 40.796731,
    "lng": 111.669943,
    "tel": "0471-3339344;0471-3339777;0471-3396888"
  },
  {
    "city": "贵阳市",
    "name": "贵州退休医师医院",
    "lat": 26.567624,
    "lng": 106.710423,
    "tel": "0851-85563366;0851-85568900"
  },
  {
    "city": "贵阳市",
    "name": "贵阳市口腔医院(青云路)",
    "lat": 26.568598,
    "lng": 106.710851,
    "tel": "0851-85563551;0851-88334021;4006562926"
  },
  {
    "city": "贵阳市",
    "name": "贵阳长江医院",
    "lat": 26.578756,
    "lng": 106.716375,
    "tel": "0851-85814266;0851-85840000"
  },
  {
    "city": "贵阳市",
    "name": "中国·贵阳和谐阳光医院",
    "lat": 26.57796,
    "lng": 106.670919,
    "tel": "0851-84822111;18585865184"
  },
  {
    "city": "贵阳市",
    "name": "中国工商银行24小时自助银行(贵轮职工医院东)",
    "lat": 26.574896,
    "lng": 106.650482,
    "tel": ""
  },
  {
    "city": "贵阳市",
    "name": "现代女子医院",
    "lat": 26.587061,
    "lng": 106.707947,
    "tel": "4001010373;13618585985"
  },
  {
    "city": "贵阳市",
    "name": "贵阳和美妇产医院",
    "lat": 26.533413,
    "lng": 106.695517,
    "tel": "0851-88332065;0851-88332003;4001887886"
  },
  {
    "city": "铜仁市",
    "name": "华夏医院(东太大道)",
    "lat": 27.740855,
    "lng": 109.198884,
    "tel": "0856-5205555"
  },
  {
    "city": "安顺市",
    "name": "益民通讯(安顺市西秀区气象局东南)",
    "lat": 26.246586,
    "lng": 105.922074,
    "tel": ""
  },
  {
    "city": "毕节市",
    "name": "毕节现代医院",
    "lat": 27.306058,
    "lng": 105.291154,
    "tel": "0857-8635555"
  },
  {
    "city": "长沙市",
    "name": "华夏医院",
    "lat": 28.227953,
    "lng": 113.083015,
    "tel": "0731-82391620"
  },
  {
    "city": "长沙市",
    "name": "湖南省长沙市长沙县湘江医院(公交站)",
    "lat": 28.24413,
    "lng": 113.085523,
    "tel": ""
  },
  {
    "city": "长沙市",
    "name": "长沙阳光医院",
    "lat": 28.179594,
    "lng": 112.973436,
    "tel": "0731-85828388;0731-85813999"
  },
  {
    "city": "长沙市",
    "name": "长沙仁爱妇产医院",
    "lat": 28.21818,
    "lng": 112.983161,
    "tel": "0731-84812888;0731-84812666"
  },
  {
    "city": "长沙市",
    "name": "长沙·年轮骨科医院",
    "lat": 28.131758,
    "lng": 113.00461,
    "tel": "0731-88827120;0731-84478888;4006666120"
  },
  {
    "city": "长沙市",
    "name": "长沙博大泌尿专科医院",
    "lat": 28.185182,
    "lng": 112.99263,
    "tel": "0731-88837120;0731-88778877"
  },
  {
    "city": "长沙市",
    "name": "长沙瑞华医院",
    "lat": 28.145637,
    "lng": 112.906134,
    "tel": ""
  },
  {
    "city": "长沙市",
    "name": "长沙现代妇科医院(天洋大酒店东北)",
    "lat": 28.171539,
    "lng": 113.00293,
    "tel": "0731-88688855;0731-85555529;0731-85188800"
  },
  {
    "city": "长沙市",
    "name": "长沙丽人妇产医院",
    "lat": 28.190228,
    "lng": 113.009552,
    "tel": "0731-88182688"
  },
  {
    "city": "长沙市",
    "name": "长沙阳光医院",
    "lat": 28.179594,
    "lng": 112.973436,
    "tel": "0731-85828388;0731-85813999"
  },
  {
    "city": "长沙市",
    "name": "武警湖南省总队医院妇产中心",
    "lat": 28.196029,
    "lng": 112.944594,
    "tel": "0731-88883318"
  },
  {
    "city": "湘潭市",
    "name": "湘潭阳光眼科",
    "lat": 27.865975,
    "lng": 112.9158,
    "tel": "0731-58220666"
  },
  {
    "city": "娄底市",
    "name": "娄底阳光医院(大汉大道)",
    "lat": 27.754877,
    "lng": 112.002713,
    "tel": "0738-6793335"
  },
  {
    "city": "南昌市",
    "name": "南昌市第五医院",
    "lat": 28.62908,
    "lng": 115.918024,
    "tel": "0791-86658901;0791-86353355;0791-88459999;0791-88450196"
  },
  {
    "city": "南昌市",
    "name": "南昌仁爱妇产医院",
    "lat": 28.656632,
    "lng": 115.887281,
    "tel": "0791-85207758;0791-86573333"
  },
  {
    "city": "南昌市",
    "name": "南昌曙光手足外科医院",
    "lat": 28.657106,
    "lng": 115.927321,
    "tel": "0791-88230000;13367096889"
  },
  {
    "city": "南昌市",
    "name": "南昌佳美美容医院",
    "lat": 28.651439,
    "lng": 115.919002,
    "tel": "0791-86660000;4006796066"
  },
  {
    "city": "南昌市",
    "name": "南昌华山不孕不育专科医院",
    "lat": 28.632369,
    "lng": 115.904923,
    "tel": "0791-86658913;0791-85211313"
  },
  {
    "city": "南昌市",
    "name": "江西省专业泌尿专科医院",
    "lat": 28.681336,
    "lng": 115.890814,
    "tel": "0791-86658922;0791-86823322;0791-87958517"
  },
  {
    "city": "南昌市",
    "name": "南昌东大肛肠专科医院",
    "lat": 28.68835,
    "lng": 115.883241,
    "tel": "0791-86822072;0791-86806111"
  },
  {
    "city": "南昌市",
    "name": "南昌博大耳鼻咽喉医院停车场",
    "lat": 28.644523,
    "lng": 115.921728,
    "tel": ""
  },
  {
    "city": "南昌市",
    "name": "江西省专业泌尿专科医院",
    "lat": 28.681336,
    "lng": 115.890814,
    "tel": "0791-86658922;0791-86823322;0791-87958517"
  },
  {
    "city": "南昌市",
    "name": "南昌仁爱妇产医院",
    "lat": 28.656632,
    "lng": 115.887281,
    "tel": "0791-85207758;0791-86573333"
  },
  {
    "city": "九江市",
    "name": "九江海洋船舶物资经营部",
    "lat": 29.719738,
    "lng": 115.984166,
    "tel": "0792-8126802;13617029168"
  },
  {
    "city": "九江市",
    "name": "新世纪医院(庐山北路)",
    "lat": 29.727274,
    "lng": 115.978762,
    "tel": "0792-8107773;0792-8107771"
  },
  {
    "city": "九江市",
    "name": "江西省九江市都昌县阳光村",
    "lat": 29.264946,
    "lng": 116.364273,
    "tel": ""
  },
  {
    "city": "萍乡市",
    "name": "萍乡新世纪泌尿专科医院",
    "lat": 27.63552,
    "lng": 113.856537,
    "tel": ""
  },
  {
    "city": "萍乡市",
    "name": "萍乡阳光妇科医院",
    "lat": 27.652615,
    "lng": 113.855115,
    "tel": "13979906699"
  },
  {
    "city": "赣州市",
    "name": "赣州现代泌尿专科医院",
    "lat": 25.825304,
    "lng": 114.959258,
    "tel": "0797-8189595;0797-8181111;0797-8183588"
  },
  {
    "city": "上饶市",
    "name": "上饶东大肛肠专科医院",
    "lat": 28.464265,
    "lng": 117.970826,
    "tel": "0793-8277666"
  },
  {
    "city": "上饶市",
    "name": "上饶协和医院",
    "lat": 28.445494,
    "lng": 117.98046,
    "tel": "0793-8299966"
  },
  {
    "city": "太原市",
    "name": "山西现代妇产医院",
    "lat": 37.836475,
    "lng": 112.582569,
    "tel": "0351-4096888;0351-4299088;0351-4096660"
  },
  {
    "city": "太原市",
    "name": "山西民生医院",
    "lat": 37.842267,
    "lng": 112.549827,
    "tel": "0351-2248666;0351-2199999;0351-7225241"
  },
  {
    "city": "太原市",
    "name": "太原糖尿病专科医院",
    "lat": 37.85668,
    "lng": 112.586511,
    "tel": "0351-6063168;0351-4066265"
  },
  {
    "city": "太原市",
    "name": "太原新医医院",
    "lat": 37.836204,
    "lng": 112.586757,
    "tel": "0351-5658511;0351-7083222;13333461536"
  },
  {
    "city": "太原市",
    "name": "益民中医院(南内环街)",
    "lat": 37.835693,
    "lng": 112.578967,
    "tel": "0351-5616999"
  },
  {
    "city": "太原市",
    "name": "武警医院",
    "lat": 37.802274,
    "lng": 112.574525,
    "tel": "0351-7073747;0351-7073833"
  },
  {
    "city": "太原市",
    "name": "中正花园",
    "lat": 37.826586,
    "lng": 112.592996,
    "tel": ""
  },
  {
    "city": "太原市",
    "name": "太原糖尿病专科医院",
    "lat": 37.85668,
    "lng": 112.586511,
    "tel": "0351-6063168;0351-4066265"
  },
  {
    "city": "太原市",
    "name": "太原新医医院",
    "lat": 37.836204,
    "lng": 112.586757,
    "tel": "0351-5658511;0351-7083222;13333461536"
  },
  {
    "city": "太原市",
    "name": "益民中医院(南内环街)",
    "lat": 37.835693,
    "lng": 112.578967,
    "tel": "0351-5616999"
  },
  {
    "city": "太原市",
    "name": "山西太原白癜风医院",
    "lat": 37.837688,
    "lng": 112.572003,
    "tel": "0351-7070000"
  },
  {
    "city": "临汾市",
    "name": "临汾现代女子医院",
    "lat": 36.067975,
    "lng": 111.520229,
    "tel": "0357-2313333;0357-2152263"
  },
  {
    "city": "长治市",
    "name": "长治圣爱妇产医院",
    "lat": 36.195701,
    "lng": 113.096177,
    "tel": "0355-3786666;0355-3521972"
  },
  {
    "city": "大同市",
    "name": "新时代妇科医院(魏都大道)",
    "lat": 40.108559,
    "lng": 113.293458,
    "tel": "0352-2433999;13643425078"
  },
  {
    "city": "晋城市",
    "name": "现代女子医院(建设路)",
    "lat": 35.501921,
    "lng": 112.847179,
    "tel": "0356-2023333"
  },
  {
    "city": "晋城市",
    "name": "晋城博大生殖医院",
    "lat": 35.499221,
    "lng": 112.851916,
    "tel": "0356-2063999"
  },
  {
    "city": "晋中市",
    "name": "新阳光妇科医院",
    "lat": 37.43748,
    "lng": 112.58453,
    "tel": ""
  },
  {
    "city": "运城市",
    "name": "禹都人民医院",
    "lat": 35.031881,
    "lng": 111.018139,
    "tel": "0359-2094999;0359-2087999"
  },
  {
    "city": "运城市",
    "name": "禹都人民医院",
    "lat": 35.031881,
    "lng": 111.018139,
    "tel": "0359-2094999;0359-2087999"
  },
  {
    "city": "西安市",
    "name": "西安俪人医院",
    "lat": 34.227293,
    "lng": 108.909511,
    "tel": "029-88850059;029-88635555"
  },
  {
    "city": "西安市",
    "name": "中国人民武装警察部队陕西省总队医院",
    "lat": 34.232461,
    "lng": 108.990246,
    "tel": "029-82223616"
  },
  {
    "city": "西安市",
    "name": "阳光宾馆(西安席王村店)",
    "lat": 34.284595,
    "lng": 109.066433,
    "tel": "029-83502122"
  },
  {
    "city": "包头市",
    "name": "包头现代女子医院",
    "lat": 40.652404,
    "lng": 109.850868,
    "tel": "0472-6969098;0472-6969120"
  },
  {
    "city": "蚌埠市",
    "name": "中国人民解放军一二三中心医院(肿瘤科)",
    "lat": 32.90955,
    "lng": 117.337091,
    "tel": ""
  },
  {
    "city": "亳州市",
    "name": "涡阳阳光医院",
    "lat": 33.479603,
    "lng": 116.235504,
    "tel": "0558-7278002"
  },
  {
    "city": "芜湖市",
    "name": "芜湖阳光医院",
    "lat": 31.462065,
    "lng": 118.243806,
    "tel": ""
  },
  {
    "city": "芜湖市",
    "name": "无为朝阳医院",
    "lat": 31.292164,
    "lng": 117.921013,
    "tel": "0553-6106666;0553-5886907"
  },
  {
    "city": "淮北市",
    "name": "友好妇产",
    "lat": 33.964803,
    "lng": 116.790474,
    "tel": "0561-3899111;0561-3899577"
  },
  {
    "city": "淮北市",
    "name": "阳光心理医院",
    "lat": 33.914473,
    "lng": 116.797551,
    "tel": "0561-3118877"
  },
  {
    "city": "合肥市",
    "name": "合肥中山医院",
    "lat": 31.875916,
    "lng": 117.31929,
    "tel": "0551-64256999;0551-64251111;0551-64255288"
  },
  {
    "city": "合肥市",
    "name": "合肥九龙男科医院停车场",
    "lat": 31.861503,
    "lng": 117.309929,
    "tel": "0551-62690791"
  },
  {
    "city": "合肥市",
    "name": "安徽合肥丹凤朝阳妇产医院",
    "lat": 31.888481,
    "lng": 117.301316,
    "tel": "0551-64250055;0551-64250033;0551-62623111"
  },
  {
    "city": "安阳市",
    "name": "安阳协和医院",
    "lat": 36.093519,
    "lng": 114.332076,
    "tel": "0372-3661777"
  },
  {
    "city": "郑州市",
    "name": "河南中都中西医结合皮肤病医院",
    "lat": 34.753002,
    "lng": 113.743628,
    "tel": "0371-60309999;0371-55208989;4000313900"
  },
  {
    "city": "郑州市",
    "name": "河南省军区医院",
    "lat": 34.76794,
    "lng": 113.676361,
    "tel": "0371-81670469;0371-81671400"
  },
  {
    "city": "郑州市",
    "name": "郑州集美美容医院",
    "lat": 34.747132,
    "lng": 113.673644,
    "tel": "0371-60907777;13676929687;0371-55625263"
  },
  {
    "city": "郑州市",
    "name": "郑州华夏中医白癜风医院",
    "lat": 34.720305,
    "lng": 113.68715,
    "tel": "0371-60226000;0371-66912345;13633821409"
  },
  {
    "city": "郑州市",
    "name": "华山医院(陇海西路)",
    "lat": 34.732971,
    "lng": 113.596371,
    "tel": "0371-67666999;0371-67681120;0371-67681730"
  },
  {
    "city": "许昌市",
    "name": "许昌车站西货场(白庙后街)",
    "lat": 34.017179,
    "lng": 113.822055,
    "tel": ""
  },
  {
    "city": "许昌市",
    "name": "凤凰医院",
    "lat": 34.026868,
    "lng": 113.816323,
    "tel": "0374-3261113;0374-3261111"
  },
  {
    "city": "许昌市",
    "name": "中山医院(西大街)",
    "lat": 34.023844,
    "lng": 113.820729,
    "tel": "0374-2158889;0374-2158888"
  },
  {
    "city": "廊坊市",
    "name": "廊坊万福妇产医院",
    "lat": 39.542014,
    "lng": 116.70819,
    "tel": "0316-5269999"
  },
  {
    "city": "廊坊市",
    "name": "世纪协和医院",
    "lat": 39.508347,
    "lng": 116.710954,
    "tel": "0316-2292529;0316-2041666"
  },
  {
    "city": "保定市",
    "name": "唐县京津医院",
    "lat": 38.754438,
    "lng": 114.988861,
    "tel": "0312-7551940"
  },
  {
    "city": "保定市",
    "name": "保定世纪协和医院",
    "lat": 38.865,
    "lng": 115.482005,
    "tel": "0312-2012222;0312-5918111"
  },
  {
    "city": "保定市",
    "name": "易县人民医院",
    "lat": 39.347607,
    "lng": 115.509832,
    "tel": "0312-8211247"
  },
  {
    "city": "保定市",
    "name": "保定现代妇产医院",
    "lat": 38.887241,
    "lng": 115.460804,
    "tel": "0312-5957777"
  },
  {
    "city": "保定市",
    "name": "白癜风医院",
    "lat": 38.845128,
    "lng": 115.497219,
    "tel": "0312-5930000;0312-5936666;4000312026"
  },
  {
    "city": "唐山市",
    "name": "唐山京城皮肤病医院",
    "lat": 39.632408,
    "lng": 118.145949,
    "tel": "0315-3731111;0315-7831111"
  },
  {
    "city": "唐山市",
    "name": "唐山女子医院停车场",
    "lat": 39.628293,
    "lng": 118.133826,
    "tel": ""
  },
  {
    "city": "唐山市",
    "name": "河北省玉田县红十字会医院",
    "lat": 39.881965,
    "lng": 117.75427,
    "tel": "0315-6121222"
  },
  {
    "city": "洛阳市",
    "name": "洛阳牡丹妇产医院",
    "lat": 34.652583,
    "lng": 112.404869,
    "tel": "0379-68611159;0379-65169999;0379-68611175"
  },
  {
    "city": "洛阳市",
    "name": "中国人民解放军第五三四医院",
    "lat": 34.633505,
    "lng": 112.387749,
    "tel": "0379-61833120"
  },
  {
    "city": "洛阳市",
    "name": "洛阳牡丹妇产医院",
    "lat": 34.652583,
    "lng": 112.404869,
    "tel": "0379-68611159;0379-65169999;0379-68611175"
  },
  {
    "city": "信阳市",
    "name": "外科",
    "lat": 32.45167,
    "lng": 115.41744,
    "tel": ""
  },
  {
    "city": "平顶山市",
    "name": "平顶山市武警医院牙病防治中心宝丰门诊部",
    "lat": 33.863739,
    "lng": 113.072495,
    "tel": ""
  },
  {
    "city": "漯河市",
    "name": "漯河东方医院",
    "lat": 33.581254,
    "lng": 114.044602,
    "tel": "0395-2912000;0395-2118333"
  },
  {
    "city": "石家庄市",
    "name": "河北省石家庄市长安区东方",
    "lat": 38.050603,
    "lng": 114.502829,
    "tel": ""
  },
  {
    "city": "石家庄市",
    "name": "石家庄美联臣医疗美容医院",
    "lat": 38.039167,
    "lng": 114.484053,
    "tel": "0311-85277777;0311-85276997"
  },
  {
    "city": "邯郸市",
    "name": "邯郸都市整形美容医院",
    "lat": 36.607174,
    "lng": 114.500345,
    "tel": "0310-3082777"
  },
  {
    "city": "拉萨市",
    "name": "博爱宠物医院(江苏东路)",
    "lat": 29.659356,
    "lng": 91.147745,
    "tel": ""
  },
  {
    "city": "拉萨市",
    "name": "西藏大学附属拉萨医院",
    "lat": 29.656283,
    "lng": 91.138324,
    "tel": ""
  },
  {
    "city": "银川市",
    "name": "宁夏西京妇产医院停车场",
    "lat": 38.447798,
    "lng": 106.28663,
    "tel": ""
  },
  {
    "city": "兰州市",
    "name": "仁和医院",
    "lat": 36.046036,
    "lng": 103.836089,
    "tel": "0931-8110399"
  },
  {
    "city": "兰州市",
    "name": "仁和医院",
    "lat": 36.046036,
    "lng": 103.836089,
    "tel": "0931-8110399"
  },
  {
    "city": "桂林市",
    "name": "完美嫁衣尊爵婚纱馆",
    "lat": 25.26865,
    "lng": 110.30972,
    "tel": "0773-5636210"
  },
  {
    "city": "桂林市",
    "name": "完美嫁衣尊爵婚纱馆",
    "lat": 25.26865,
    "lng": 110.30972,
    "tel": "0773-5636210"
  },
  {
    "city": "柳州市",
    "name": "柳州福康医院",
    "lat": 24.295959,
    "lng": 109.440779,
    "tel": "0772-3142999;0772-3112999;0772-2599999"
  },
  {
    "city": "乌鲁木齐市",
    "name": "新疆维吾尔自治区乌鲁木齐市天山区新疆维吾尔自治区人民医院",
    "lat": 43.780277,
    "lng": 87.609213,
    "tel": ""
  },
  {
    "city": "乌鲁木齐市",
    "name": "爱德华医院",
    "lat": 43.812328,
    "lng": 87.605706,
    "tel": "0991-7787199;0991-7787230;0991-7787220"
  }
]