[{"adcode":"370400","people_count_2010":3189966,"lat":34.856424,"lng":117.557964,"name":"枣庄市","level":"city","parent":"山东省"},{"adcode":"411500","people_count_2010":6085177,"lat":32.123274,"lng":114.075031,"name":"信阳市","level":"city","parent":"河南省"},{"adcode":"411200","people_count_2010":2181802,"lat":34.777338,"lng":111.194099,"name":"三门峡市","level":"city","parent":"河南省"},{"adcode":"310100","people_count_2010":20431439,"lat":31.231706,"lng":121.472644,"name":"上海市市辖区","level":"city","parent":"上海市"},{"adcode":"141100","people_count_2010":3727068,"lat":37.524366,"lng":111.134335,"name":"吕梁市","level":"city","parent":"山西省"},{"adcode":"410300","people_count_2010":6727880,"lat":34.663041,"lng":112.434468,"name":"洛阳市","level":"city","parent":"河南省"},{"adcode":"520300","people_count_2010":6127082,"lat":27.706626,"lng":106.937265,"name":"遵义市","level":"city","parent":"贵州省"},{"adcode":"640500","people_count_2010":1080832,"lat":37.514951,"lng":105.189568,"name":"中卫市","level":"city","parent":"宁夏回族自治区"},{"adcode":"410800","people_count_2010":4215858,"lat":35.23904,"lng":113.238266,"name":"焦作市","level":"city","parent":"河南省"},{"adcode":"410700","people_count_2010":5699625,"lat":35.302616,"lng":113.883991,"name":"新乡市","level":"city","parent":"河南省"},{"adcode":"650200","people_count_2010":391008,"lat":45.595886,"lng":84.873946,"name":"克拉玛依市","level":"city","parent":"新疆维吾尔自治区"},{"adcode":"220400","people_count_2010":1176239,"lat":42.902692,"lng":125.145349,"name":"辽源市","level":"city","parent":"吉林省"},{"adcode":"220200","people_count_2010":4413157,"lat":43.843577,"lng":126.55302,"name":"吉林市","level":"city","parent":"吉林省"},{"adcode":"220500","people_count_2010":2324439,"lat":41.721177,"lng":125.936501,"name":"通化市","level":"city","parent":"吉林省"},{"adcode":"450400","people_count_2010":2882200,"lat":23.474803,"lng":111.297604,"name":"梧州市","level":"city","parent":"广西壮族自治区"},{"adcode":"341100","people_count_2010":3937868,"lat":32.303627,"lng":118.316264,"name":"滁州市","level":"city","parent":"安徽省"},{"adcode":"441500","people_count_2010":2484942,"lat":22.774485,"lng":115.364238,"name":"汕尾市","level":"city","parent":"广东省"},{"adcode":"130100","people_count_2010":9388002,"lat":38.045474,"lng":114.502461,"name":"石家庄市","level":"city","parent":"河北省"},{"adcode":"654300","people_count_2010":603283,"lat":47.848393,"lng":88.13963,"name":"阿勒泰地区","level":"city","parent":"新疆维吾尔自治区"},{"adcode":"411700","people_count_2010":7895662,"lat":32.980169,"lng":114.024736,"name":"驻马店市","level":"city","parent":"河南省"},{"adcode":"411300","people_count_2010":10313241,"lat":32.999082,"lng":112.540918,"name":"南阳市","level":"city","parent":"河南省"},{"adcode":"370100","people_count_2010":6774701,"lat":36.675807,"lng":117.000923,"name":"济南市","level":"city","parent":"山东省"},{"adcode":"450800","people_count_2010":4093874,"lat":23.0936,"lng":109.602146,"name":"贵港市","level":"city","parent":"广西壮族自治区"},{"adcode":"341700","people_count_2010":1402518,"lat":30.656037,"lng":117.489157,"name":"池州市","level":"city","parent":"安徽省"},{"adcode":"321100","people_count_2010":3114105,"lat":32.204402,"lng":119.452753,"name":"镇江市","level":"city","parent":"江苏省"},{"adcode":"320500","people_count_2010":10963914,"lat":31.299379,"lng":120.619585,"name":"苏州市","level":"city","parent":"江苏省"},{"adcode":"620300","people_count_2010":464050,"lat":38.514238,"lng":102.187888,"name":"金昌市","level":"city","parent":"甘肃省"},{"adcode":"632200","people_count_2010":382310,"lat":36.959435,"lng":100.901059,"name":"海北藏族自治州","level":"city","parent":"青海省"},{"adcode":"630200","people_count_2010":null,"lat":36.502916,"lng":102.10327,"name":"海东市","level":"city","parent":"青海省"},{"adcode":"411100","people_count_2010":3294974,"lat":33.575855,"lng":114.026405,"name":"漯河市","level":"city","parent":"河南省"},{"adcode":"330700","people_count_2010":5327557,"lat":29.089524,"lng":119.649506,"name":"金华市","level":"city","parent":"浙江省"},{"adcode":"640400","people_count_2010":1228156,"lat":36.004561,"lng":106.285241,"name":"固原市","level":"city","parent":"宁夏回族自治区"},{"adcode":"511800","people_count_2010":1507258,"lat":29.987722,"lng":103.001033,"name":"雅安市","level":"city","parent":"四川省"},{"adcode":"370700","people_count_2010":9060565,"lat":36.70925,"lng":119.107078,"name":"潍坊市","level":"city","parent":"山东省"},{"adcode":"371100","people_count_2010":2801013,"lat":35.428588,"lng":119.461208,"name":"日照市","level":"city","parent":"山东省"},{"adcode":"331000","people_count_2010":5973231,"lat":28.661378,"lng":121.428599,"name":"台州市","level":"city","parent":"浙江省"},{"adcode":"220300","people_count_2010":2778595,"lat":43.170344,"lng":124.370785,"name":"四平市","level":"city","parent":"吉林省"},{"adcode":"360400","people_count_2010":4728778,"lat":29.712034,"lng":115.992811,"name":"九江市","level":"city","parent":"江西省"},{"adcode":"321300","people_count_2010":4678095,"lat":33.963008,"lng":118.275162,"name":"宿迁市","level":"city","parent":"江苏省"},{"adcode":"410900","people_count_2010":3552086,"lat":35.768234,"lng":115.041299,"name":"濮阳市","level":"city","parent":"河南省"},{"adcode":"533100","people_count_2010":1745777,"lat":24.436694,"lng":98.578363,"name":"德宏傣族景颇族自治州","level":"city","parent":"云南省"},{"adcode":"440100","people_count_2010":12728106,"lat":23.125178,"lng":113.280637,"name":"广州市","level":"city","parent":"广东省"},{"adcode":"440700","people_count_2010":4450703,"lat":22.590431,"lng":113.094942,"name":"江门市","level":"city","parent":"广东省"},{"adcode":"533300","people_count_2010":1184835,"lat":25.850949,"lng":98.854304,"name":"怒江傈僳族自治州","level":"city","parent":"云南省"},{"adcode":"441200","people_count_2010":3916467,"lat":23.051546,"lng":112.472529,"name":"肇庆市","level":"city","parent":"广东省"},{"adcode":"469022","people_count_2010":5939907,"lat":19.362916,"lng":110.102773,"name":"屯昌县","level":"city","parent":"海南省"},{"adcode":"130800","people_count_2010":3473201,"lat":40.976204,"lng":117.939152,"name":"承德市","level":"city","parent":"河北省"},{"adcode":"130900","people_count_2010":7698958,"lat":38.310582,"lng":116.857461,"name":"沧州市","level":"city","parent":"河北省"},{"adcode":"330600","people_count_2010":4923454,"lat":29.997117,"lng":120.582112,"name":"绍兴市","level":"city","parent":"浙江省"},{"adcode":"130200","people_count_2010":7577289,"lat":39.635113,"lng":118.175393,"name":"唐山市","level":"city","parent":"河北省"},{"adcode":"231000","people_count_2010":2549232,"lat":44.582962,"lng":129.618602,"name":"牡丹江市","level":"city","parent":"黑龙江省"},{"adcode":"210400","people_count_2010":2138090,"lat":41.875956,"lng":123.921109,"name":"抚顺市","level":"city","parent":"辽宁省"},{"adcode":"210500","people_count_2010":1709538,"lat":41.297909,"lng":123.770519,"name":"本溪市","level":"city","parent":"辽宁省"},{"adcode":"210900","people_count_2010":1779628,"lat":42.011796,"lng":121.648962,"name":"阜新市","level":"city","parent":"辽宁省"},{"adcode":"330900","people_count_2010":742456,"lat":30.016028,"lng":122.106863,"name":"舟山市","level":"city","parent":"浙江省"},{"adcode":"370900","people_count_2010":5478265,"lat":36.194968,"lng":117.129063,"name":"泰安市","level":"city","parent":"山东省"},{"adcode":"210700","people_count_2010":3126463,"lat":41.119269,"lng":121.135742,"name":"锦州市","level":"city","parent":"辽宁省"},{"adcode":"520200","people_count_2010":2815987,"lat":26.584643,"lng":104.846743,"name":"六盘水市","level":"city","parent":"贵州省"},{"adcode":"522600","people_count_2010":3481891,"lat":26.583352,"lng":107.977488,"name":"黔东南苗族侗族自治州","level":"city","parent":"贵州省"},{"adcode":"370300","people_count_2010":4530597,"lat":36.814939,"lng":118.047648,"name":"淄博市","level":"city","parent":"山东省"},{"adcode":"620900","people_count_2010":1106492,"lat":39.744023,"lng":98.510795,"name":"酒泉市","level":"city","parent":"甘肃省"},{"adcode":"542500","people_count_2010":95465,"lat":32.503187,"lng":80.105498,"name":"阿里地区","level":"city","parent":"西藏自治区"},{"adcode":"530300","people_count_2010":5852164,"lat":25.501557,"lng":103.797851,"name":"曲靖市","level":"city","parent":"云南省"},{"adcode":"530500","people_count_2010":2506491,"lat":25.111802,"lng":99.167133,"name":"保山市","level":"city","parent":"云南省"},{"adcode":"532900","people_count_2010":5274343,"lat":25.589449,"lng":100.225668,"name":"大理白族自治州","level":"city","parent":"云南省"},{"adcode":"341300","people_count_2010":6974366,"lat":33.633891,"lng":116.984084,"name":"宿州市","level":"city","parent":"安徽省"},{"adcode":"530600","people_count_2010":5185150,"lat":27.336999,"lng":103.717216,"name":"昭通市","level":"city","parent":"云南省"},{"adcode":"530900","people_count_2010":5801192,"lat":23.886567,"lng":100.08697,"name":"临沧市","level":"city","parent":"云南省"},{"adcode":"640100","people_count_2010":1993088,"lat":38.46637,"lng":106.278179,"name":"银川市","level":"city","parent":"宁夏回族自治区"},{"adcode":"330100","people_count_2010":8402597,"lat":30.287459,"lng":120.153576,"name":"杭州市","level":"city","parent":"浙江省"},{"adcode":"532600","people_count_2010":4610409,"lat":23.36951,"lng":104.24401,"name":"文山壮族苗族自治州","level":"city","parent":"云南省"},{"adcode":"211400","people_count_2010":2623541,"lat":40.755572,"lng":120.856394,"name":"葫芦岛市","level":"city","parent":"辽宁省"},{"adcode":"451100","people_count_2010":2348582,"lat":24.414141,"lng":111.552056,"name":"贺州市","level":"city","parent":"广西壮族自治区"},{"adcode":"440200","people_count_2010":2826246,"lat":24.801322,"lng":113.591544,"name":"韶关市","level":"city","parent":"广东省"},{"adcode":"140800","people_count_2010":5134779,"lat":35.022778,"lng":111.003957,"name":"运城市","level":"city","parent":"山西省"},{"adcode":"140600","people_count_2010":1714857,"lat":39.331261,"lng":112.433387,"name":"朔州市","level":"city","parent":"山西省"},{"adcode":"659006","people_count_2010":770886,"lat":41.827251,"lng":85.501218,"name":"铁门关市","level":"city","parent":"新疆维吾尔自治区"},{"adcode":"141000","people_count_2010":4316610,"lat":36.08415,"lng":111.517973,"name":"临汾市","level":"city","parent":"山西省"},{"adcode":"350200","people_count_2010":3531347,"lat":24.490474,"lng":118.11022,"name":"厦门市","level":"city","parent":"福建省"},{"adcode":"371400","people_count_2010":5568235,"lat":37.453968,"lng":116.307428,"name":"德州市","level":"city","parent":"山东省"},{"adcode":"310200","people_count_2010":703722,"lat":31.623587,"lng":121.397417,"name":"上海市郊县","level":"city","parent":"上海市"},{"adcode":"632300","people_count_2010":737781,"lat":35.517744,"lng":102.019988,"name":"黄南藏族自治州","level":"city","parent":"青海省"},{"adcode":"632500","people_count_2010":623373,"lat":36.280353,"lng":100.619542,"name":"海南藏族自治州","level":"city","parent":"青海省"},{"adcode":"211300","people_count_2010":3044641,"lat":41.576758,"lng":120.451176,"name":"朝阳市","level":"city","parent":"辽宁省"},{"adcode":"511900","people_count_2010":3256981,"lat":31.858809,"lng":106.753669,"name":"巴中市","level":"city","parent":"四川省"},{"adcode":"620400","people_count_2010":1708752,"lat":36.54568,"lng":104.173606,"name":"白银市","level":"city","parent":"甘肃省"},{"adcode":"532500","people_count_2010":8575364,"lat":23.366775,"lng":103.384182,"name":"红河哈尼族彝族自治州","level":"city","parent":"云南省"},{"adcode":"420900","people_count_2010":4799035,"lat":30.926423,"lng":113.926655,"name":"孝感市","level":"city","parent":"湖北省"},{"adcode":"130500","people_count_2010":6433949,"lat":37.0682,"lng":114.508851,"name":"邢台市","level":"city","parent":"河北省"},{"adcode":"350600","people_count_2010":4809983,"lat":24.510897,"lng":117.661801,"name":"漳州市","level":"city","parent":"福建省"},{"adcode":"511000","people_count_2010":3209502,"lat":29.58708,"lng":105.066138,"name":"内江市","level":"city","parent":"四川省"},{"adcode":"510700","people_count_2010":4571807,"lat":31.46402,"lng":104.741722,"name":"绵阳市","level":"city","parent":"四川省"},{"adcode":"140500","people_count_2010":1802201,"lat":35.497553,"lng":112.851274,"name":"晋城市","level":"city","parent":"山西省"},{"adcode":"511100","people_count_2010":2572945,"lat":29.582024,"lng":103.761263,"name":"乐山市","level":"city","parent":"四川省"},{"adcode":"511400","people_count_2010":2917471,"lat":30.048318,"lng":103.831788,"name":"眉山市","level":"city","parent":"四川省"},{"adcode":"512000","people_count_2010":4552496,"lat":30.122211,"lng":104.641917,"name":"资阳市","level":"city","parent":"四川省"},{"adcode":"420300","people_count_2010":3340841,"lat":32.646907,"lng":110.787916,"name":"十堰市","level":"city","parent":"湖北省"},{"adcode":"513200","people_count_2010":898708,"lat":31.899792,"lng":102.221374,"name":"阿坝藏族羌族自治州","level":"city","parent":"四川省"},{"adcode":"640200","people_count_2010":725482,"lat":39.01333,"lng":106.376173,"name":"石嘴山市","level":"city","parent":"宁夏回族自治区"},{"adcode":"469006","people_count_2010":545597,"lat":18.796216,"lng":110.388793,"name":"万宁市","level":"city","parent":"海南省"},{"adcode":"450300","people_count_2010":5374183,"lat":25.274215,"lng":110.299121,"name":"桂林市","level":"city","parent":"广西壮族自治区"},{"adcode":"520600","people_count_2010":null,"lat":27.718346,"lng":109.191555,"name":"铜仁市","level":"city","parent":"贵州省"},{"adcode":"340500","people_count_2010":1366302,"lat":31.689362,"lng":118.507906,"name":"马鞍山市","level":"city","parent":"安徽省"},{"adcode":"341600","people_count_2010":4900000,"lat":33.869338,"lng":115.782939,"name":"亳州市","level":"city","parent":"安徽省"},{"adcode":"220700","people_count_2010":2880086,"lat":45.118243,"lng":124.823608,"name":"松原市","level":"city","parent":"吉林省"},{"adcode":"150100","people_count_2010":3218484,"lat":40.818311,"lng":111.670801,"name":"呼和浩特市","level":"city","parent":"内蒙古自治区"},{"adcode":"500200","people_count_2010":13563221,"lat":29.291965,"lng":108.170255,"name":"重庆市郊县","level":"city","parent":"重庆市"},{"adcode":"659001","people_count_2010":380130,"lat":44.305886,"lng":86.041075,"name":"石河子市","level":"city","parent":"新疆维吾尔自治区"},{"adcode":"150700","people_count_2010":2607496,"lat":49.215333,"lng":119.758168,"name":"呼伦贝尔市","level":"city","parent":"内蒙古自治区"},{"adcode":"360800","people_count_2010":4810339,"lat":27.111699,"lng":114.986373,"name":"吉安市","level":"city","parent":"江西省"},{"adcode":"632700","people_count_2010":867777,"lat":33.004049,"lng":97.008522,"name":"玉树藏族自治州","level":"city","parent":"青海省"},{"adcode":"410500","people_count_2010":5209899,"lat":36.103442,"lng":114.352482,"name":"安阳市","level":"city","parent":"河南省"},{"adcode":"152500","people_count_2010":1028022,"lat":43.944018,"lng":116.090996,"name":"锡林郭勒盟","level":"city","parent":"内蒙古自治区"},{"adcode":"152200","people_count_2010":2193640,"lat":46.076268,"lng":122.070317,"name":"兴安盟","level":"city","parent":"内蒙古自治区"},{"adcode":"152900","people_count_2010":231334,"lat":38.844814,"lng":105.706422,"name":"阿拉善盟","level":"city","parent":"内蒙古自治区"},{"adcode":"540200","people_count_2010":null,"lat":29.267519,"lng":88.885148,"name":"日喀则市","level":"city","parent":"西藏自治区"},{"adcode":"430600","people_count_2010":6136430,"lat":29.37029,"lng":113.132855,"name":"岳阳市","level":"city","parent":"湖南省"},{"adcode":"130400","people_count_2010":9174683,"lat":36.612273,"lng":114.490686,"name":"邯郸市","level":"city","parent":"河北省"},{"adcode":"429005","people_count_2010":946277,"lat":30.421215,"lng":112.896866,"name":"潜江市","level":"city","parent":"湖北省"},{"adcode":"430400","people_count_2010":7193113,"lat":26.900358,"lng":112.607693,"name":"衡阳市","level":"city","parent":"湖南省"},{"adcode":"361000","people_count_2010":3922419,"lat":27.98385,"lng":116.358351,"name":"抚州市","level":"city","parent":"江西省"},{"adcode":"522300","people_count_2010":2804612,"lat":25.08812,"lng":104.897971,"name":"黔西南布依族苗族自治州","level":"city","parent":"贵州省"},{"adcode":"230500","people_count_2010":3232812,"lat":46.643442,"lng":131.157304,"name":"双鸭山市","level":"city","parent":"黑龙江省"},{"adcode":"411600","people_count_2010":8953534,"lat":33.620357,"lng":114.649653,"name":"周口市","level":"city","parent":"河南省"},{"adcode":"659005","people_count_2010":770886,"lat":47.353177,"lng":87.824932,"name":"北屯市","level":"city","parent":"新疆维吾尔自治区"},{"adcode":"230800","people_count_2010":2003656,"lat":46.809606,"lng":130.361634,"name":"佳木斯市","level":"city","parent":"黑龙江省"},{"adcode":"220800","people_count_2010":2032356,"lat":45.619026,"lng":122.841114,"name":"白城市","level":"city","parent":"吉林省"},{"adcode":"530800","people_count_2010":null,"lat":22.777321,"lng":100.972344,"name":"普洱市","level":"city","parent":"云南省"},{"adcode":"533400","people_count_2010":560787,"lat":27.826853,"lng":99.706463,"name":"迪庆藏族自治州","level":"city","parent":"云南省"},{"adcode":"211000","people_count_2010":1858768,"lat":41.269402,"lng":123.18152,"name":"辽阳市","level":"city","parent":"辽宁省"},{"adcode":"460200","people_count_2010":6600000,"lat":18.247872,"lng":109.508268,"name":"三亚市","level":"city","parent":"海南省"},{"adcode":"469024","people_count_2010":5939907,"lat":19.908293,"lng":109.687697,"name":"临高县","level":"city","parent":"海南省"},{"adcode":"441700","people_count_2010":2421748,"lat":21.859222,"lng":111.975107,"name":"阳江市","level":"city","parent":"广东省"},{"adcode":"440800","people_count_2010":8512201,"lat":21.274898,"lng":110.364977,"name":"湛江市","level":"city","parent":"广东省"},{"adcode":"653000","people_count_2010":525570,"lat":39.713431,"lng":76.172825,"name":"克孜勒苏柯尔克孜自治州","level":"city","parent":"新疆维吾尔自治区"},{"adcode":"620800","people_count_2010":2068033,"lat":35.54279,"lng":106.684691,"name":"平凉市","level":"city","parent":"甘肃省"},{"adcode":"140700","people_count_2010":3228744,"lat":37.696495,"lng":112.736465,"name":"晋中市","level":"city","parent":"山西省"},{"adcode":"140900","people_count_2010":3067503,"lat":38.41769,"lng":112.733538,"name":"忻州市","level":"city","parent":"山西省"},{"adcode":"620200","people_count_2010":231853,"lat":39.786529,"lng":98.277304,"name":"嘉峪关市","level":"city","parent":"甘肃省"},{"adcode":"140100","people_count_2010":4997055,"lat":37.857014,"lng":112.549248,"name":"太原市","level":"city","parent":"山西省"},{"adcode":"140200","people_count_2010":2595041,"lat":40.09031,"lng":113.295259,"name":"大同市","level":"city","parent":"山西省"},{"adcode":"140300","people_count_2010":1210910,"lat":37.861188,"lng":113.583285,"name":"阳泉市","level":"city","parent":"山西省"},{"adcode":"420800","people_count_2010":2851173,"lat":31.03542,"lng":112.204251,"name":"荆门市","level":"city","parent":"湖北省"},{"adcode":"540400","people_count_2010":null,"lat":29.654693,"lng":94.362348,"name":"林芝市","level":"city","parent":"西藏自治区"},{"adcode":"513400","people_count_2010":4747214,"lat":27.886762,"lng":102.258746,"name":"凉山彝族自治州","level":"city","parent":"四川省"},{"adcode":"350500","people_count_2010":8123635,"lat":24.908853,"lng":118.589421,"name":"泉州市","level":"city","parent":"福建省"},{"adcode":"500100","people_count_2010":14894880,"lat":29.533155,"lng":106.504962,"name":"重庆市市辖区","level":"city","parent":"重庆市"},{"adcode":"231100","people_count_2010":1673899,"lat":50.249585,"lng":127.499023,"name":"黑河市","level":"city","parent":"黑龙江省"},{"adcode":"420500","people_count_2010":4059686,"lat":30.702636,"lng":111.290843,"name":"宜昌市","level":"city","parent":"湖北省"},{"adcode":"429004","people_count_2010":1200000,"lat":30.364953,"lng":113.453974,"name":"仙桃市","level":"city","parent":"湖北省"},{"adcode":"210600","people_count_2010":2444697,"lat":40.124296,"lng":124.383044,"name":"丹东市","level":"city","parent":"辽宁省"},{"adcode":"530700","people_count_2010":9332569,"lat":26.872108,"lng":100.233026,"name":"丽江市","level":"city","parent":"云南省"},{"adcode":"532300","people_count_2010":7161399,"lat":25.041988,"lng":101.546046,"name":"楚雄彝族自治州","level":"city","parent":"云南省"},{"adcode":"420700","people_count_2010":1191276,"lat":30.396536,"lng":114.890593,"name":"鄂州市","level":"city","parent":"湖北省"},{"adcode":"371000","people_count_2010":2804771,"lat":37.509691,"lng":122.116394,"name":"威海市","level":"city","parent":"山东省"},{"adcode":"341200","people_count_2010":7630903,"lat":32.896969,"lng":115.819729,"name":"阜阳市","level":"city","parent":"安徽省"},{"adcode":"421100","people_count_2010":6162069,"lat":30.447711,"lng":114.879365,"name":"黄冈市","level":"city","parent":"湖北省"},{"adcode":"131000","people_count_2010":4358839,"lat":39.523927,"lng":116.704441,"name":"廊坊市","level":"city","parent":"河北省"},{"adcode":"140400","people_count_2010":2569724,"lat":36.191112,"lng":113.113556,"name":"长治市","level":"city","parent":"山西省"},{"adcode":"620100","people_count_2010":2712348,"lat":36.058039,"lng":103.823557,"name":"兰州市","level":"city","parent":"甘肃省"},{"adcode":"370500","people_count_2010":2035338,"lat":37.434564,"lng":118.66471,"name":"东营市","level":"city","parent":"山东省"},{"adcode":"371200","people_count_2010":1298529,"lat":36.214397,"lng":117.677736,"name":"莱芜市","level":"city","parent":"山东省"},{"adcode":"442000","people_count_2010":3100000,"lat":22.521113,"lng":113.382391,"name":"中山市","level":"city","parent":"广东省"},{"adcode":"340200","people_count_2010":2263123,"lat":31.326319,"lng":118.376451,"name":"芜湖市","level":"city","parent":"安徽省"},{"adcode":"621100","people_count_2010":2698624,"lat":35.579578,"lng":104.626294,"name":"定西市","level":"city","parent":"甘肃省"},{"adcode":"620500","people_count_2010":3539218,"lat":34.578529,"lng":105.724998,"name":"天水市","level":"city","parent":"甘肃省"},{"adcode":"469002","people_count_2010":483217,"lat":19.246011,"lng":110.466785,"name":"琼海市","level":"city","parent":"海南省"},{"adcode":"350400","people_count_2010":2503388,"lat":26.265444,"lng":117.635001,"name":"三明市","level":"city","parent":"福建省"},{"adcode":"610100","people_count_2010":6816285,"lat":34.263161,"lng":108.948024,"name":"西安市","level":"city","parent":"陕西省"},{"adcode":"222400","people_count_2010":2270816,"lat":42.904823,"lng":129.513228,"name":"延边朝鲜族自治州","level":"city","parent":"吉林省"},{"adcode":"451300","people_count_2010":2099711,"lat":23.733766,"lng":109.229772,"name":"来宾市","level":"city","parent":"广西壮族自治区"},{"adcode":"340700","people_count_2010":651657,"lat":30.929935,"lng":117.816576,"name":"铜陵市","level":"city","parent":"安徽省"},{"adcode":"520100","people_count_2010":4058115,"lat":26.578343,"lng":106.713478,"name":"贵阳市","level":"city","parent":"贵州省"},{"adcode":"522700","people_count_2010":3232714,"lat":26.258219,"lng":107.517156,"name":"黔南布依族苗族自治州","level":"city","parent":"贵州省"},{"adcode":"429006","people_count_2010":1400000,"lat":30.653061,"lng":113.165862,"name":"天门市","level":"city","parent":"湖北省"},{"adcode":"520500","people_count_2010":null,"lat":27.301693,"lng":105.28501,"name":"毕节市","level":"city","parent":"贵州省"},{"adcode":"530400","people_count_2010":2960834,"lat":24.350461,"lng":102.543907,"name":"玉溪市","level":"city","parent":"云南省"},{"adcode":"210100","people_count_2010":7131923,"lat":41.796767,"lng":123.429096,"name":"沈阳市","level":"city","parent":"辽宁省"},{"adcode":"360200","people_count_2010":1587477,"lat":29.29256,"lng":117.214664,"name":"景德镇市","level":"city","parent":"江西省"},{"adcode":"460300","people_count_2010":null,"lat":16.831039,"lng":112.34882,"name":"三沙市","level":"city","parent":"海南省"},{"adcode":"350700","people_count_2010":2645548,"lat":26.635627,"lng":118.178459,"name":"南平市","level":"city","parent":"福建省"},{"adcode":"511600","people_count_2010":3205476,"lat":30.456398,"lng":106.633369,"name":"广安市","level":"city","parent":"四川省"},{"adcode":"650100","people_count_2010":2715928,"lat":43.792818,"lng":87.617733,"name":"乌鲁木齐市","level":"city","parent":"新疆维吾尔自治区"},{"adcode":"361100","people_count_2010":6582990,"lat":28.44442,"lng":117.971185,"name":"上饶市","level":"city","parent":"江西省"},{"adcode":"469005","people_count_2010":537426,"lat":19.612986,"lng":110.753975,"name":"文昌市","level":"city","parent":"海南省"},{"adcode":"210200","people_count_2010":6665881,"lat":38.91459,"lng":121.618622,"name":"大连市","level":"city","parent":"辽宁省"},{"adcode":"530100","people_count_2010":7537860,"lat":25.040609,"lng":102.712251,"name":"昆明市","level":"city","parent":"云南省"},{"adcode":"410100","people_count_2010":8638373,"lat":34.757975,"lng":113.665412,"name":"郑州市","level":"city","parent":"河南省"},{"adcode":"360500","people_count_2010":1138874,"lat":27.810834,"lng":114.930835,"name":"新余市","level":"city","parent":"江西省"},{"adcode":"321200","people_count_2010":4691468,"lat":32.484882,"lng":119.915176,"name":"泰州市","level":"city","parent":"江苏省"},{"adcode":"210300","people_count_2010":3647670,"lat":41.110626,"lng":122.995632,"name":"鞍山市","level":"city","parent":"辽宁省"},{"adcode":"320800","people_count_2010":4271650,"lat":33.597506,"lng":119.021265,"name":"淮安市","level":"city","parent":"江苏省"},{"adcode":"350900","people_count_2010":2821996,"lat":26.65924,"lng":119.527082,"name":"宁德市","level":"city","parent":"福建省"},{"adcode":"640300","people_count_2010":1438808,"lat":37.986165,"lng":106.199409,"name":"吴忠市","level":"city","parent":"宁夏回族自治区"},{"adcode":"411400","people_count_2010":7322593,"lat":34.437054,"lng":115.650497,"name":"商丘市","level":"city","parent":"河南省"},{"adcode":"510400","people_count_2010":1787238,"lat":26.580446,"lng":101.716007,"name":"攀枝花市","level":"city","parent":"四川省"},{"adcode":"150600","people_count_2010":1940653,"lat":39.817179,"lng":109.99029,"name":"鄂尔多斯市","level":"city","parent":"内蒙古自治区"},{"adcode":"510500","people_count_2010":4218427,"lat":28.889138,"lng":105.443348,"name":"泸州市","level":"city","parent":"四川省"},{"adcode":"510600","people_count_2010":3628996,"lat":31.127991,"lng":104.398651,"name":"德阳市","level":"city","parent":"四川省"},{"adcode":"510800","people_count_2010":2967698,"lat":32.433668,"lng":105.829757,"name":"广元市","level":"city","parent":"四川省"},{"adcode":"510300","people_count_2010":2678899,"lat":29.352765,"lng":104.773447,"name":"自贡市","level":"city","parent":"四川省"},{"adcode":"510900","people_count_2010":3252619,"lat":30.513311,"lng":105.571331,"name":"遂宁市","level":"city","parent":"四川省"},{"adcode":"450600","people_count_2010":866927,"lat":21.614631,"lng":108.345478,"name":"防城港市","level":"city","parent":"广西壮族自治区"},{"adcode":"511300","people_count_2010":6278614,"lat":30.795281,"lng":106.082974,"name":"南充市","level":"city","parent":"四川省"},{"adcode":"622900","people_count_2010":2826472,"lat":35.599446,"lng":103.212006,"name":"临夏回族自治州","level":"city","parent":"甘肃省"},{"adcode":"511700","people_count_2010":5493631,"lat":31.209484,"lng":107.502262,"name":"达州市","level":"city","parent":"四川省"},{"adcode":"320900","people_count_2010":7262200,"lat":33.377631,"lng":120.139998,"name":"盐城市","level":"city","parent":"江苏省"},{"adcode":"230200","people_count_2010":5367003,"lat":47.342081,"lng":123.95792,"name":"齐齐哈尔市","level":"city","parent":"黑龙江省"},{"adcode":"422800","people_count_2010":6890402,"lat":30.283114,"lng":109.48699,"name":"恩施土家族苗族自治州","level":"city","parent":"湖北省"},{"adcode":"654000","people_count_2010":2662336,"lat":43.92186,"lng":81.317946,"name":"伊犁哈萨克自治州","level":"city","parent":"新疆维吾尔自治区"},{"adcode":"441400","people_count_2010":4287933,"lat":24.299112,"lng":116.117582,"name":"梅州市","level":"city","parent":"广东省"},{"adcode":"232700","people_count_2010":665919,"lat":52.335262,"lng":124.711526,"name":"大兴安岭地区","level":"city","parent":"黑龙江省"},{"adcode":"420200","people_count_2010":2429318,"lat":30.220074,"lng":115.077048,"name":"黄石市","level":"city","parent":"湖北省"},{"adcode":"410200","people_count_2010":4765604,"lat":34.797049,"lng":114.341447,"name":"开封市","level":"city","parent":"河南省"},{"adcode":"520400","people_count_2010":2598975,"lat":26.245544,"lng":105.932188,"name":"安顺市","level":"city","parent":"贵州省"},{"adcode":"610200","people_count_2010":834437,"lat":34.916582,"lng":108.979608,"name":"铜川市","level":"city","parent":"陕西省"},{"adcode":"659007","people_count_2010":770886,"lat":44.840524,"lng":82.353656,"name":"双河市","level":"city","parent":"新疆维吾尔自治区"},{"adcode":"540100","people_count_2010":1632598,"lat":29.660361,"lng":91.132212,"name":"拉萨市","level":"city","parent":"西藏自治区"},{"adcode":"230300","people_count_2010":1862165,"lat":45.300046,"lng":130.975966,"name":"鸡西市","level":"city","parent":"黑龙江省"},{"adcode":"654200","people_count_2010":1219369,"lat":46.746301,"lng":82.985732,"name":"塔城地区","level":"city","parent":"新疆维吾尔自治区"},{"adcode":"440300","people_count_2010":9232781,"lat":22.547,"lng":114.085947,"name":"深圳市","level":"city","parent":"广东省"},{"adcode":"440500","people_count_2010":5374806,"lat":23.37102,"lng":116.708463,"name":"汕头市","level":"city","parent":"广东省"},{"adcode":"610400","people_count_2010":5297173,"lat":34.333439,"lng":108.705117,"name":"咸阳市","level":"city","parent":"陕西省"},{"adcode":"350100","people_count_2010":6392826,"lat":26.075302,"lng":119.306239,"name":"福州市","level":"city","parent":"福建省"},{"adcode":"410400","people_count_2010":5785938,"lat":33.735241,"lng":113.307718,"name":"平顶山市","level":"city","parent":"河南省"},{"adcode":"211200","people_count_2010":3157747,"lat":42.290585,"lng":123.844279,"name":"铁岭市","level":"city","parent":"辽宁省"},{"adcode":"330500","people_count_2010":2893542,"lat":30.867198,"lng":120.102398,"name":"湖州市","level":"city","parent":"浙江省"},{"adcode":"330800","people_count_2010":2122661,"lat":28.941708,"lng":118.87263,"name":"衢州市","level":"city","parent":"浙江省"},{"adcode":"330200","people_count_2010":7673449,"lat":29.868388,"lng":121.549792,"name":"宁波市","level":"city","parent":"浙江省"},{"adcode":"430100","people_count_2010":7095345,"lat":28.19409,"lng":112.982279,"name":"长沙市","level":"city","parent":"湖南省"},{"adcode":"430700","people_count_2010":5714623,"lat":29.040225,"lng":111.691347,"name":"常德市","level":"city","parent":"湖南省"},{"adcode":"433100","people_count_2010":2549558,"lat":28.314296,"lng":109.739735,"name":"湘西土家族苗族自治州","level":"city","parent":"湖南省"},{"adcode":"340600","people_count_2010":2113321,"lat":33.971707,"lng":116.794664,"name":"淮北市","level":"city","parent":"安徽省"},{"adcode":"421200","people_count_2010":2462583,"lat":29.832798,"lng":114.328963,"name":"咸宁市","level":"city","parent":"湖北省"},{"adcode":"430300","people_count_2010":2752171,"lat":27.82973,"lng":112.944052,"name":"湘潭市","level":"city","parent":"湖南省"},{"adcode":"320700","people_count_2010":4162436,"lat":34.600018,"lng":119.178821,"name":"连云港市","level":"city","parent":"江苏省"},{"adcode":"632600","people_count_2010":560121,"lat":34.4736,"lng":100.242143,"name":"果洛藏族自治州","level":"city","parent":"青海省"},{"adcode":"440400","people_count_2010":1562530,"lat":22.224979,"lng":113.553986,"name":"珠海市","level":"city","parent":"广东省"},{"adcode":"430900","people_count_2010":4307933,"lat":28.570066,"lng":112.355042,"name":"益阳市","level":"city","parent":"湖南省"},{"adcode":"620700","people_count_2010":1199515,"lat":38.932897,"lng":100.455472,"name":"张掖市","level":"city","parent":"甘肃省"},{"adcode":"610600","people_count_2010":2187009,"lat":36.596537,"lng":109.49081,"name":"延安市","level":"city","parent":"陕西省"},{"adcode":"441600","people_count_2010":2950195,"lat":23.746266,"lng":114.697802,"name":"河源市","level":"city","parent":"广东省"},{"adcode":"450100","people_count_2010":6705437,"lat":22.82402,"lng":108.320004,"name":"南宁市","level":"city","parent":"广西壮族自治区"},{"adcode":"441900","people_count_2010":8200000,"lat":23.046237,"lng":113.746262,"name":"东莞市","level":"city","parent":"广东省"},{"adcode":"445300","people_count_2010":2367154,"lat":22.929801,"lng":112.044439,"name":"云浮市","level":"city","parent":"广东省"},{"adcode":"450500","people_count_2010":1539251,"lat":21.473343,"lng":109.119254,"name":"北海市","level":"city","parent":"广西壮族自治区"},{"adcode":"371700","people_count_2010":8271368,"lat":35.246531,"lng":115.469381,"name":"菏泽市","level":"city","parent":"山东省"},{"adcode":"440600","people_count_2010":7242689,"lat":23.028762,"lng":113.122717,"name":"佛山市","level":"city","parent":"广东省"},{"adcode":"220600","people_count_2010":1660850,"lat":41.942505,"lng":126.427839,"name":"白山市","level":"city","parent":"吉林省"},{"adcode":"350800","people_count_2010":5419351,"lat":25.091603,"lng":117.02978,"name":"龙岩市","level":"city","parent":"福建省"},{"adcode":"450700","people_count_2010":3127047,"lat":21.967127,"lng":108.624175,"name":"钦州市","level":"city","parent":"广西壮族自治区"},{"adcode":"469027","people_count_2010":467161,"lat":18.74758,"lng":109.175444,"name":"乐东黎族自治县","level":"city","parent":"海南省"},{"adcode":"542200","people_count_2010":364463,"lat":29.236023,"lng":91.766529,"name":"山南地区","level":"city","parent":"西藏自治区"},{"adcode":"131100","people_count_2010":39774686,"lat":37.735097,"lng":115.665993,"name":"衡水市","level":"city","parent":"河北省"},{"adcode":"511500","people_count_2010":4471896,"lat":28.760189,"lng":104.630825,"name":"宜宾市","level":"city","parent":"四川省"},{"adcode":"130600","people_count_2010":11496109,"lat":38.867657,"lng":115.482331,"name":"保定市","level":"city","parent":"河北省"},{"adcode":"120100","people_count_2010":13450226,"lat":39.125596,"lng":117.190182,"name":"天津市市辖区","level":"city","parent":"天津市"},{"adcode":"120200","people_count_2010":1847910,"lat":39.330613,"lng":117.824898,"name":"天津市郊县","level":"city","parent":"天津市"},{"adcode":"429021","people_count_2010":76140,"lat":31.744449,"lng":110.671525,"name":"神农架林区","level":"city","parent":"湖北省"},{"adcode":"542400","people_count_2010":462381,"lat":31.476004,"lng":92.060214,"name":"那曲地区","level":"city","parent":"西藏自治区"},{"adcode":"623000","people_count_2010":689132,"lat":34.986354,"lng":102.911008,"name":"甘南藏族自治州","level":"city","parent":"甘肃省"},{"adcode":"621000","people_count_2010":2211191,"lat":35.734218,"lng":107.638372,"name":"庆阳市","level":"city","parent":"甘肃省"},{"adcode":"430500","people_count_2010":7076343,"lat":27.237842,"lng":111.46923,"name":"邵阳市","level":"city","parent":"湖南省"},{"adcode":"130300","people_count_2010":3722351,"lat":39.942531,"lng":119.586579,"name":"秦皇岛市","level":"city","parent":"河北省"},{"adcode":"130700","people_count_2010":3718213,"lat":40.811901,"lng":114.884091,"name":"张家口市","level":"city","parent":"河北省"},{"adcode":"652700","people_count_2010":443680,"lat":44.903258,"lng":82.074778,"name":"博尔塔拉蒙古自治州","level":"city","parent":"新疆维吾尔自治区"},{"adcode":"653100","people_count_2010":4017164,"lat":39.467664,"lng":75.989138,"name":"喀什地区","level":"city","parent":"新疆维吾尔自治区"},{"adcode":"652900","people_count_2010":2896379,"lat":41.170712,"lng":80.265068,"name":"阿克苏地区","level":"city","parent":"新疆维吾尔自治区"},{"adcode":"653200","people_count_2010":4480430,"lat":37.110687,"lng":79.92533,"name":"和田地区","level":"city","parent":"新疆维吾尔自治区"},{"adcode":"659004","people_count_2010":96436,"lat":44.167401,"lng":87.526884,"name":"五家渠市","level":"city","parent":"新疆维吾尔自治区"},{"adcode":"659008","people_count_2010":770886,"lat":43.6832,"lng":80.63579,"name":"可克达拉市","level":"city","parent":"新疆维吾尔自治区"},{"adcode":"652300","people_count_2010":1731864,"lat":44.014577,"lng":87.304012,"name":"昌吉回族自治州","level":"city","parent":"新疆维吾尔自治区"},{"adcode":"430200","people_count_2010":3857100,"lat":27.835806,"lng":113.151737,"name":"株洲市","level":"city","parent":"湖南省"},{"adcode":"411000","people_count_2010":4275430,"lat":34.022956,"lng":113.826063,"name":"许昌市","level":"city","parent":"河南省"},{"adcode":"513300","people_count_2010":5665663,"lat":30.050663,"lng":101.963815,"name":"甘孜藏族自治州","level":"city","parent":"四川省"},{"adcode":"220100","people_count_2010":6886682,"lat":43.886841,"lng":125.3245,"name":"长春市","level":"city","parent":"吉林省"},{"adcode":"340300","people_count_2010":3136401,"lat":32.939667,"lng":117.363228,"name":"蚌埠市","level":"city","parent":"安徽省"},{"adcode":"150900","people_count_2010":2293073,"lat":41.034126,"lng":113.114543,"name":"乌兰察布市","level":"city","parent":"内蒙古自治区"},{"adcode":"469026","people_count_2010":256931,"lat":19.260968,"lng":109.053351,"name":"昌江黎族自治县","level":"city","parent":"海南省"},{"adcode":"211100","people_count_2010":1392493,"lat":41.124484,"lng":122.06957,"name":"盘锦市","level":"city","parent":"辽宁省"},{"adcode":"610900","people_count_2010":2629906,"lat":32.6903,"lng":109.029273,"name":"安康市","level":"city","parent":"陕西省"},{"adcode":"632800","people_count_2010":536460,"lat":37.374663,"lng":97.370785,"name":"海西蒙古族藏族自治州","level":"city","parent":"青海省"},{"adcode":"110100","people_count_2010":18934592,"lat":39.904989,"lng":116.405285,"name":"北京市市辖区","level":"city","parent":"北京市"},{"adcode":"659003","people_count_2010":135727,"lat":39.867316,"lng":79.077978,"name":"图木舒克市","level":"city","parent":"新疆维吾尔自治区"},{"adcode":"340400","people_count_2010":2333896,"lat":32.647574,"lng":117.018329,"name":"淮南市","level":"city","parent":"安徽省"},{"adcode":"460400","people_count_2010":null,"lat":19.517486,"lng":109.576782,"name":"儋州市","level":"city","parent":"海南省"},{"adcode":"150200","people_count_2010":2751850,"lat":40.658168,"lng":109.840405,"name":"包头市","level":"city","parent":"内蒙古自治区"},{"adcode":"331100","people_count_2010":2116957,"lat":28.451993,"lng":119.921786,"name":"丽水市","level":"city","parent":"浙江省"},{"adcode":"330300","people_count_2010":9130194,"lat":28.000575,"lng":120.672111,"name":"温州市","level":"city","parent":"浙江省"},{"adcode":"150400","people_count_2010":4341245,"lat":42.275317,"lng":118.956806,"name":"赤峰市","level":"city","parent":"内蒙古自治区"},{"adcode":"150300","people_count_2010":532902,"lat":39.673734,"lng":106.825563,"name":"乌海市","level":"city","parent":"内蒙古自治区"},{"adcode":"360600","people_count_2010":1125156,"lat":28.238638,"lng":117.033838,"name":"鹰潭市","level":"city","parent":"江西省"},{"adcode":"330400","people_count_2010":4501657,"lat":30.762653,"lng":120.750865,"name":"嘉兴市","level":"city","parent":"浙江省"},{"adcode":"340800","people_count_2010":5311379,"lat":30.50883,"lng":117.043551,"name":"安庆市","level":"city","parent":"安徽省"},{"adcode":"420100","people_count_2010":10171553,"lat":30.584355,"lng":114.298572,"name":"武汉市","level":"city","parent":"湖北省"},{"adcode":"341800","people_count_2010":2532938,"lat":30.945667,"lng":118.757995,"name":"宣城市","level":"city","parent":"安徽省"},{"adcode":"421300","people_count_2010":2955910,"lat":31.717497,"lng":113.37377,"name":"随州市","level":"city","parent":"湖北省"},{"adcode":"150800","people_count_2010":1669915,"lat":40.757402,"lng":107.416959,"name":"巴彦淖尔市","level":"city","parent":"内蒙古自治区"},{"adcode":"150500","people_count_2010":3545175,"lat":43.617429,"lng":122.263119,"name":"通辽市","level":"city","parent":"内蒙古自治区"},{"adcode":"469030","people_count_2010":167918,"lat":19.03557,"lng":109.839996,"name":"琼中黎族苗族自治县","level":"city","parent":"海南省"},{"adcode":"469023","people_count_2010":5939907,"lat":19.737095,"lng":110.007147,"name":"澄迈县","level":"city","parent":"海南省"},{"adcode":"340100","people_count_2010":5680145,"lat":31.86119,"lng":117.283042,"name":"合肥市","level":"city","parent":"安徽省"},{"adcode":"341500","people_count_2010":5623217,"lat":31.752889,"lng":116.507676,"name":"六安市","level":"city","parent":"安徽省"},{"adcode":"341000","people_count_2010":1358980,"lat":29.709239,"lng":118.317325,"name":"黄山市","level":"city","parent":"安徽省"},{"adcode":"230700","people_count_2010":1148126,"lat":47.724775,"lng":128.899396,"name":"伊春市","level":"city","parent":"黑龙江省"},{"adcode":"421000","people_count_2010":5728937,"lat":30.326857,"lng":112.23813,"name":"荆州市","level":"city","parent":"湖北省"},{"adcode":"469001","people_count_2010":104119,"lat":18.776921,"lng":109.516662,"name":"五指山市","level":"city","parent":"海南省"},{"adcode":"469021","people_count_2010":5939907,"lat":19.684966,"lng":110.349235,"name":"定安县","level":"city","parent":"海南省"},{"adcode":"659002","people_count_2010":158593,"lat":40.541914,"lng":81.285884,"name":"阿拉尔市","level":"city","parent":"新疆维吾尔自治区"},{"adcode":"469025","people_count_2010":284614,"lat":19.224584,"lng":109.452606,"name":"白沙黎族自治县","level":"city","parent":"海南省"},{"adcode":"630100","people_count_2010":1911721,"lat":36.623178,"lng":101.778916,"name":"西宁市","level":"city","parent":"青海省"},{"adcode":"469028","people_count_2010":427873,"lat":18.505006,"lng":110.037218,"name":"陵水黎族自治县","level":"city","parent":"海南省"},{"adcode":"445100","people_count_2010":5300000,"lat":23.661701,"lng":116.632301,"name":"潮州市","level":"city","parent":"广东省"},{"adcode":"610300","people_count_2010":3716737,"lat":34.369315,"lng":107.14487,"name":"宝鸡市","level":"city","parent":"陕西省"},{"adcode":"610500","people_count_2010":5286077,"lat":34.499381,"lng":109.502882,"name":"渭南市","level":"city","parent":"陕西省"},{"adcode":"230400","people_count_2010":2162557,"lat":47.332085,"lng":130.277487,"name":"鹤岗市","level":"city","parent":"黑龙江省"},{"adcode":"610700","people_count_2010":3416196,"lat":33.077668,"lng":107.028621,"name":"汉中市","level":"city","parent":"陕西省"},{"adcode":"611000","people_count_2010":2341742,"lat":33.868319,"lng":109.939776,"name":"商洛市","level":"city","parent":"陕西省"},{"adcode":"469007","people_count_2010":408309,"lat":19.10198,"lng":108.653789,"name":"东方市","level":"city","parent":"海南省"},{"adcode":"230100","people_count_2010":10592114,"lat":45.756967,"lng":126.642464,"name":"哈尔滨市","level":"city","parent":"黑龙江省"},{"adcode":"460100","people_count_2010":2046170,"lat":20.031971,"lng":110.33119,"name":"海口市","level":"city","parent":"海南省"},{"adcode":"621200","people_count_2010":4522320,"lat":33.388598,"lng":104.929379,"name":"陇南市","level":"city","parent":"甘肃省"},{"adcode":"360300","people_count_2010":1854515,"lat":27.622946,"lng":113.852186,"name":"萍乡市","level":"city","parent":"江西省"},{"adcode":"360100","people_count_2010":4520070,"lat":28.676493,"lng":115.892151,"name":"南昌市","level":"city","parent":"江西省"},{"adcode":"652800","people_count_2010":1406114,"lat":41.768552,"lng":86.150969,"name":"巴音郭楞蒙古自治州","level":"city","parent":"新疆维吾尔自治区"},{"adcode":"610800","people_count_2010":3351436,"lat":38.290162,"lng":109.741193,"name":"榆林市","level":"city","parent":"陕西省"},{"adcode":"445200","people_count_2010":5972081,"lat":23.543778,"lng":116.355733,"name":"揭阳市","level":"city","parent":"广东省"},{"adcode":"650400","people_count_2010":null,"lat":42.947613,"lng":89.184078,"name":"吐鲁番市","level":"city","parent":"新疆维吾尔自治区"},{"adcode":"440900","people_count_2010":5831304,"lat":21.659751,"lng":110.919229,"name":"茂名市","level":"city","parent":"广东省"},{"adcode":"652200","people_count_2010":2123059,"lat":42.833248,"lng":93.51316,"name":"哈密地区","level":"city","parent":"新疆维吾尔自治区"},{"adcode":"410600","people_count_2010":1569208,"lat":35.748236,"lng":114.295444,"name":"鹤壁市","level":"city","parent":"河南省"},{"adcode":"431200","people_count_2010":4986789,"lat":27.550082,"lng":109.97824,"name":"怀化市","level":"city","parent":"湖南省"},{"adcode":"430800","people_count_2010":1478149,"lat":29.127401,"lng":110.479921,"name":"张家界市","level":"city","parent":"湖南省"},{"adcode":"431100","people_count_2010":5653754,"lat":26.434516,"lng":111.608019,"name":"永州市","level":"city","parent":"湖南省"},{"adcode":"431300","people_count_2010":3773474,"lat":27.728136,"lng":112.008497,"name":"娄底市","level":"city","parent":"湖南省"},{"adcode":"431000","people_count_2010":4583531,"lat":25.793589,"lng":113.032067,"name":"郴州市","level":"city","parent":"湖南省"},{"adcode":"230600","people_count_2010":3138370,"lat":46.590734,"lng":125.11272,"name":"大庆市","level":"city","parent":"黑龙江省"},{"adcode":"231200","people_count_2010":5418153,"lat":46.637393,"lng":126.99293,"name":"绥化市","level":"city","parent":"黑龙江省"},{"adcode":"419001","people_count_2010":null,"lat":35.090378,"lng":112.590047,"name":"济源市","level":"city","parent":"河南省"},{"adcode":"320300","people_count_2010":8060518,"lat":34.261792,"lng":117.184811,"name":"徐州市","level":"city","parent":"江苏省"},{"adcode":"320100","people_count_2010":7958116,"lat":32.041544,"lng":118.767413,"name":"南京市","level":"city","parent":"江苏省"},{"adcode":"320200","people_count_2010":6316878,"lat":31.574729,"lng":120.301663,"name":"无锡市","level":"city","parent":"江苏省"},{"adcode":"320600","people_count_2010":8442973,"lat":32.016212,"lng":120.864608,"name":"南通市","level":"city","parent":"江苏省"},{"adcode":"321000","people_count_2010":4453694,"lat":32.393159,"lng":119.421003,"name":"扬州市","level":"city","parent":"江苏省"},{"adcode":"230900","people_count_2010":920471,"lat":45.771266,"lng":131.015584,"name":"七台河市","level":"city","parent":"黑龙江省"},{"adcode":"350300","people_count_2010":2778508,"lat":25.431011,"lng":119.007558,"name":"莆田市","level":"city","parent":"福建省"},{"adcode":"441800","people_count_2010":3788927,"lat":23.685022,"lng":113.051227,"name":"清远市","level":"city","parent":"广东省"},{"adcode":"451000","people_count_2010":3466758,"lat":23.897742,"lng":106.616285,"name":"百色市","level":"city","parent":"广西壮族自治区"},{"adcode":"469029","people_count_2010":5939907,"lat":18.636371,"lng":109.70245,"name":"保亭黎族苗族自治县","level":"city","parent":"海南省"},{"adcode":"360700","people_count_2010":8368447,"lat":25.85097,"lng":114.940278,"name":"赣州市","level":"city","parent":"江西省"},{"adcode":"360900","people_count_2010":5337247,"lat":27.8043,"lng":114.391136,"name":"宜春市","level":"city","parent":"江西省"},{"adcode":"450900","people_count_2010":5455905,"lat":22.63136,"lng":110.154393,"name":"玉林市","level":"city","parent":"广西壮族自治区"},{"adcode":"371500","people_count_2010":5760095,"lat":36.456013,"lng":115.980367,"name":"聊城市","level":"city","parent":"山东省"},{"adcode":"451200","people_count_2010":3369251,"lat":24.695899,"lng":108.062105,"name":"河池市","level":"city","parent":"广西壮族自治区"},{"adcode":"620600","people_count_2010":1979557,"lat":37.929996,"lng":102.634697,"name":"武威市","level":"city","parent":"甘肃省"},{"adcode":"370800","people_count_2010":8090844,"lat":35.415393,"lng":116.587245,"name":"济宁市","level":"city","parent":"山东省"},{"adcode":"370200","people_count_2010":8780462,"lat":36.082982,"lng":120.355173,"name":"青岛市","level":"city","parent":"山东省"},{"adcode":"371600","people_count_2010":3748474,"lat":37.383542,"lng":118.016974,"name":"滨州市","level":"city","parent":"山东省"},{"adcode":"451400","people_count_2010":1994285,"lat":22.404108,"lng":107.353926,"name":"崇左市","level":"city","parent":"广西壮族自治区"},{"adcode":"450200","people_count_2010":3758704,"lat":24.314617,"lng":109.411703,"name":"柳州市","level":"city","parent":"广西壮族自治区"},{"adcode":"320400","people_count_2010":4728581,"lat":31.772752,"lng":119.946973,"name":"常州市","level":"city","parent":"江苏省"},{"adcode":"441300","people_count_2010":4580386,"lat":23.079404,"lng":114.412599,"name":"惠州市","level":"city","parent":"广东省"},{"adcode":"540300","people_count_2010":null,"lat":31.136875,"lng":97.178452,"name":"昌都市","level":"city","parent":"西藏自治区"},{"adcode":"532800","people_count_2010":4551785,"lat":22.001724,"lng":100.797941,"name":"西双版纳傣族自治州","level":"city","parent":"云南省"},{"adcode":"371300","people_count_2010":9484805,"lat":35.065282,"lng":118.326443,"name":"临沂市","level":"city","parent":"山东省"},{"adcode":"370600","people_count_2010":6968202,"lat":37.539297,"lng":121.391382,"name":"烟台市","level":"city","parent":"山东省"},{"adcode":"210800","people_count_2010":2428534,"lat":40.667432,"lng":122.235151,"name":"营口市","level":"city","parent":"辽宁省"},{"adcode":"510100","people_count_2010":14091220,"lat":30.659462,"lng":104.065735,"name":"成都市","level":"city","parent":"四川省"},{"adcode":"420600","people_count_2010":5495566,"lat":32.042426,"lng":112.144146,"name":"襄阳市","level":"city","parent":"湖北省"}]
